address,category,id,lat,lng,location,name,originalId,polarity,subCategory,details,reviews
Everywhere,poi,29136,52.342692,4.820444,Amsterdam,"Herr Weyers Little Tank",4d0dfa26f393224b376f1fee,0,Taxi,http://tour-pedia.org/api/getPlaceDetails?id=29136,http://tour-pedia.org/api/getReviewsByPlaceId?placeId=29136
"Jacob Marisstraat",poi,29223,52.356338663465,4.8526096343994,Amsterdam,"Jacob Marisstraat",4d0059076923721ef461c43b,0,Road,http://tour-pedia.org/api/getPlaceDetails?id=29223,http://tour-pedia.org/api/getReviewsByPlaceId?placeId=29223
Jaagpad,poi,29236,52.338920107089,4.8468536138535,Amsterdam,"Nieuwe Meersluis (Schinkelsluis)",4c2728cd3703d13abf92a636,0,"Boat or Ferry",http://tour-pedia.org/api/getPlaceDetails?id=29236,http://tour-pedia.org/api/getReviewsByPlaceId?placeId=29236
"Contactweg 36",poi,29393,52.390966,4.856706,Amsterdam,"Super Dure Kantine",4c8e233958668cfab931cfec,0,Taxi,http://tour-pedia.org/api/getPlaceDetails?id=29393,http://tour-pedia.org/api/getReviewsByPlaceId?placeId=29393
Museumstraat,poi,29640,52.360007980053,4.8852467536926,Amsterdam,"Onderdoorgang Rijksmuseum",4eef66e4f9ab8c5a03db7eb8,0,Road,http://tour-pedia.org/api/getPlaceDetails?id=29640,http://tour-pedia.org/api/getReviewsByPlaceId?placeId=29640
Tasmanstraat,poi,29727,52.393109780719,4.8864054679871,Amsterdam,"Houthavenveer naar NDSM-Terrein",4b5ea057f964a520529429e3,0,"Boat or Ferry",http://tour-pedia.org/api/getPlaceDetails?id=29727,http://tour-pedia.org/api/getReviewsByPlaceId?placeId=29727
Westerstraat,poi,29760,52.378624420335,4.8854503221061,Amsterdam,Westerstraat,4d1cef0bbdd7a0934aadcfce,0,Road,http://tour-pedia.org/api/getPlaceDetails?id=29760,http://tour-pedia.org/api/getReviewsByPlaceId?placeId=29760
Silodam,poi,29875,52.390058694222,4.8913192749023,Amsterdam,"Strekdam Silodam",4de793e1ae60b9d73530887f,0,Road,http://tour-pedia.org/api/getPlaceDetails?id=29875,http://tour-pedia.org/api/getReviewsByPlaceId?placeId=29875
Weteringcircuit,poi,30110,52.359481208636,4.8915387976226,Amsterdam,"Tramhalte Weteringcircuit",4bb7962198c7ef3b04043002,0,"Light Rail",http://tour-pedia.org/api/getPlaceDetails?id=30110,http://tour-pedia.org/api/getReviewsByPlaceId?placeId=30110
"Nieuwe Leeuwarderweg 15",poi,30299,52.394150768411,4.9229371547699,Amsterdam,"De (roze) Tanker",4f7caf16e4b0bf87a91ce957,0,"Rest Area",http://tour-pedia.org/api/getPlaceDetails?id=30299,http://tour-pedia.org/api/getReviewsByPlaceId?placeId=30299
Nieuwendammerdijk,poi,30457,52.391640462472,4.9349121898158,Amsterdam,Nieuwendammerdijk,4feeeb4ce4b009182521c7c8,0,Road,http://tour-pedia.org/api/getPlaceDetails?id=30457,http://tour-pedia.org/api/getReviewsByPlaceId?placeId=30457
"Oosterdok 2",poi,30462,52.372333997149,4.9142092466354,Amsterdam,"VOC Amsterdam",4e88491c77c8fd4eda56bc77,0,"Boat or Ferry",http://tour-pedia.org/api/getPlaceDetails?id=30462,http://tour-pedia.org/api/getReviewsByPlaceId?placeId=30462
,poi,30804,52.372114563189,4.9479675292969,Amsterdam,Scheepstimmermanstraat,4bc9fd86cc8cd13a68a1bccf,0,Road,http://tour-pedia.org/api/getPlaceDetails?id=30804,http://tour-pedia.org/api/getReviewsByPlaceId?placeId=30804
"Scheeptimmermansstraat 59",poi,30874,52.372362781316,4.949905090034,Amsterdam,"Huize Schouten",4db052394df03036e8b9d34f,0,"Rest Area",http://tour-pedia.org/api/getPlaceDetails?id=30874,http://tour-pedia.org/api/getReviewsByPlaceId?placeId=30874
"Moving Target!",poi,31046,52.35048023016,5.0045728683472,Amsterdam,"Tram 26 IJburg - Centraal Station",4f042c996da1b97b15fb8246,0,"Light Rail",http://tour-pedia.org/api/getPlaceDetails?id=31046,http://tour-pedia.org/api/getReviewsByPlaceId?placeId=31046
IJburglaan,poi,31047,52.355351465462,4.9956966837373,Amsterdam,"Halte Diemerparklaan",4cbe9ce58db3b60c81667378,0,"Light Rail",http://tour-pedia.org/api/getPlaceDetails?id=31047,http://tour-pedia.org/api/getReviewsByPlaceId?placeId=31047
IJburglaan,poi,31048,52.357754007387,4.9905395507812,Amsterdam,"Tramhalte Vennepluimstraat",4c45d112f97fbe9abb10bd30,0,"Bus Station",http://tour-pedia.org/api/getPlaceDetails?id=31048,http://tour-pedia.org/api/getReviewsByPlaceId?placeId=31048
Ruisrietstraat,poi,31049,52.352933268626,4.9997971196341,Amsterdam,"Tram- en Bushalte Ruisrietstraat",4d3adc411fc36dcb03e26af5,0,"Light Rail",http://tour-pedia.org/api/getPlaceDetails?id=31049,http://tour-pedia.org/api/getReviewsByPlaceId?placeId=31049
IJburglaan,poi,31050,52.350886544778,5.0043153762817,Amsterdam,"Tramhalte IJburg",4b86d360f964a520fd9f31e3,0,"Light Rail",http://tour-pedia.org/api/getPlaceDetails?id=31050,http://tour-pedia.org/api/getReviewsByPlaceId?placeId=31050
IJburg,poi,31051,52.356392869206,4.9965719866608,Amsterdam,"Erich Salomonstraat",5065b733e4b03ffa15ff3a6b,0,Road,http://tour-pedia.org/api/getPlaceDetails?id=31051,http://tour-pedia.org/api/getReviewsByPlaceId?placeId=31051
,poi,31053,52.356872558594,4.9958925247192,Amsterdam,"Bushalte Ruiserietstraat",4f3264fce4b02344c3b62e57,0,"Bus Line",http://tour-pedia.org/api/getPlaceDetails?id=31053,http://tour-pedia.org/api/getReviewsByPlaceId?placeId=31053
,poi,31058,52.357236,4.991208,Amsterdam,"Bushalte Vennepluimstraat",50ad1102e4b04ba87b785055,0,"Bus Station",http://tour-pedia.org/api/getPlaceDetails?id=31058,http://tour-pedia.org/api/getReviewsByPlaceId?placeId=31058
,poi,31061,52.357880670646,4.9903859406914,Amsterdam,IJburglaan,5097f7a0e4b0c953ef3048d7,0,Road,http://tour-pedia.org/api/getPlaceDetails?id=31061,http://tour-pedia.org/api/getReviewsByPlaceId?placeId=31061
,poi,31062,52.358526,4.994276,Amsterdam,"Boot Gijs",4e354c40ae60d86c3abdcd8c,0,"Boat or Ferry",http://tour-pedia.org/api/getPlaceDetails?id=31062,http://tour-pedia.org/api/getReviewsByPlaceId?placeId=31062
,poi,31063,52.354705680361,4.9968737420289,Amsterdam,"Bushalte Diemerparklaan",4bbc18243de8c9b6f7a99aad,0,"Bus Station",http://tour-pedia.org/api/getPlaceDetails?id=31063,http://tour-pedia.org/api/getReviewsByPlaceId?placeId=31063
,poi,31065,52.355519,5.000999,Amsterdam,Lumierestraat,4e184c9488777e96476eb0f3,0,Road,http://tour-pedia.org/api/getPlaceDetails?id=31065,http://tour-pedia.org/api/getReviewsByPlaceId?placeId=31065
,poi,31068,52.351371934021,5.0058399207607,Amsterdam,"Bus 66 IJburg - Bijlmer ArenA",4ca9dbbed971b1f7fa7222e1,0,"Bus Line",http://tour-pedia.org/api/getPlaceDetails?id=31068,http://tour-pedia.org/api/getReviewsByPlaceId?placeId=31068
"Krijn Taconiskade 124",poi,31071,52.353238,5.003428,Amsterdam,"Veerdienst Amsterdam",51c5668a498e0c20de3a1911,0,"Boat or Ferry",http://tour-pedia.org/api/getPlaceDetails?id=31071,http://tour-pedia.org/api/getReviewsByPlaceId?placeId=31071
,poi,31072,52.354615,5.00539,Amsterdam,Sailboa,4c6518dbf67ec928b6a85627,0,"Boat or Ferry",http://tour-pedia.org/api/getPlaceDetails?id=31072,http://tour-pedia.org/api/getReviewsByPlaceId?placeId=31072
,poi,31073,52.35318,5.003798,Amsterdam,Rainboa,4e454dc87d8b91a0657edfaa,0,"Boat or Ferry",http://tour-pedia.org/api/getPlaceDetails?id=31073,http://tour-pedia.org/api/getReviewsByPlaceId?placeId=31073
,poi,31074,52.353626242202,5.0054144193121,Amsterdam,"Bootje IJburg",4c13974182a3c9b6a4a8fbf8,0,"Boat or Ferry",http://tour-pedia.org/api/getPlaceDetails?id=31074,http://tour-pedia.org/api/getReviewsByPlaceId?placeId=31074
,poi,31075,52.351123809814,5.0006241798401,Amsterdam,Dromenland,4ee3b86de5faffd730f77170,0,"General Travel",http://tour-pedia.org/api/getPlaceDetails?id=31075,http://tour-pedia.org/api/getReviewsByPlaceId?placeId=31075
"Krijn taconiskade",poi,31076,52.353582440059,5.0058129932407,Amsterdam,Titaan,4c2c8066b34ad13a0658ebce,0,"Boat or Ferry",http://tour-pedia.org/api/getPlaceDetails?id=31076,http://tour-pedia.org/api/getReviewsByPlaceId?placeId=31076
,poi,31080,52.362841,4.983404,Amsterdam,"C'est La Vie",4ff81d63e4b045d12e8c9635,0,"Boat or Ferry",http://tour-pedia.org/api/getPlaceDetails?id=31080,http://tour-pedia.org/api/getReviewsByPlaceId?placeId=31080
Machineweg,poi,31086,52.417471619086,4.7381544113159,Amsterdam,S102,4e4a7caa315100ba6f729773,0,Road,http://tour-pedia.org/api/getPlaceDetails?id=31086,http://tour-pedia.org/api/getReviewsByPlaceId?placeId=31086
,poi,31088,52.4154958115,4.7488688186596,Amsterdam,"Afrikahaven Amsterdam",4cfe9bd8f2886dcbdb3eab9c,0,"Boat or Ferry",http://tour-pedia.org/api/getPlaceDetails?id=31088,http://tour-pedia.org/api/getReviewsByPlaceId?placeId=31088
,poi,31089,52.429051999732,4.7499320015486,Amsterdam,"Connexxion Water Karla",4d96f574af3d236ad7d316c7,0,"Boat or Ferry",http://tour-pedia.org/api/getPlaceDetails?id=31089,http://tour-pedia.org/api/getReviewsByPlaceId?placeId=31089
,poi,31091,52.424632,4.762768,Amsterdam,"MS Hanzestad",4c6e58c206ed6dcb0a66a622,0,"Boat or Ferry",http://tour-pedia.org/api/getPlaceDetails?id=31091,http://tour-pedia.org/api/getReviewsByPlaceId?placeId=31091
,poi,31093,52.41573364498,4.7573816185626,Amsterdam,"Terhaak bmw drop off",520e1572498ec43bd584c120,0,"General Travel",http://tour-pedia.org/api/getPlaceDetails?id=31093,http://tour-pedia.org/api/getReviewsByPlaceId?placeId=31093
cacaohaven,poi,31094,52.415874962746,4.7621440887451,Amsterdam,"acs logistics",4e1e210f81303ccc58b7ac5f,0,"Boat or Ferry",http://tour-pedia.org/api/getPlaceDetails?id=31094,http://tour-pedia.org/api/getReviewsByPlaceId?placeId=31094
,poi,31095,52.406435,4.756748,Amsterdam,S102,4e65becfb993678bb809ebf9,0,Road,http://tour-pedia.org/api/getPlaceDetails?id=31095,http://tour-pedia.org/api/getReviewsByPlaceId?placeId=31095
,poi,31096,52.406380088297,4.7574168586663,Amsterdam,"Start Van De Groene Golf",4fb34fd8e4b06a2ccfd70eef,0,Road,http://tour-pedia.org/api/getPlaceDetails?id=31096,http://tour-pedia.org/api/getReviewsByPlaceId?placeId=31096
,poi,31097,52.402275085449,4.7564878463745,Amsterdam,"Op Me Heftruck",4e7c87a42271db53960a759e,0,Taxi,http://tour-pedia.org/api/getPlaceDetails?id=31097,http://tour-pedia.org/api/getReviewsByPlaceId?placeId=31097
,poi,31098,52.398101806641,4.7609868049622,Amsterdam,"Bushalte Oceaan Groep",4fdf48afe4b052ec1bb0109a,0,"Bus Line",http://tour-pedia.org/api/getPlaceDetails?id=31098,http://tour-pedia.org/api/getReviewsByPlaceId?placeId=31098
,poi,31100,52.423978,4.76636,Amsterdam,"River Dream",4c70100cfa49a1cd99d0a4e3,0,"Boat or Ferry",http://tour-pedia.org/api/getPlaceDetails?id=31100,http://tour-pedia.org/api/getReviewsByPlaceId?placeId=31100
,poi,31101,52.422241,4.767017,Amsterdam,Amerikahaven,517f5a8b498e584a1253a46e,0,"General Travel",http://tour-pedia.org/api/getPlaceDetails?id=31101,http://tour-pedia.org/api/getReviewsByPlaceId?placeId=31101
Amerikahaven,poi,31102,52.418537,4.7689166415816,Amsterdam,"Marpol 1",4e1dab671838f4ab74405fe8,0,"Boat or Ferry",http://tour-pedia.org/api/getPlaceDetails?id=31102,http://tour-pedia.org/api/getReviewsByPlaceId?placeId=31102
,poi,31103,52.414576,4.768522,Amsterdam,"Boot Helena",4c70078adf6b8cfa83dfb64d,0,"Boat or Ferry",http://tour-pedia.org/api/getPlaceDetails?id=31103,http://tour-pedia.org/api/getReviewsByPlaceId?placeId=31103
"cacaoweg 1",poi,31104,52.414160455916,4.765899181366,Amsterdam,"Cacaohaven Amsterdam",4e1e22bd81303ccc58b7ad05,0,"Boat or Ferry",http://tour-pedia.org/api/getPlaceDetails?id=31104,http://tour-pedia.org/api/getReviewsByPlaceId?placeId=31104
,poi,31105,52.4137,4.767471,Amsterdam,"MPS Princess",4c6ceb83e13db60c8a5ed7b1,0,"Boat or Ferry",http://tour-pedia.org/api/getPlaceDetails?id=31105,http://tour-pedia.org/api/getReviewsByPlaceId?placeId=31105
Westpoortweg,poi,31106,52.406099386302,4.762204408925,Amsterdam,"Bushalte Westpoortweg",4e74ba7daeb780be09e2616c,0,"Bus Line",http://tour-pedia.org/api/getPlaceDetails?id=31106,http://tour-pedia.org/api/getReviewsByPlaceId?placeId=31106
,poi,31107,52.407123,4.770158,Amsterdam,"Tanker Willi's",4e03c06745ddb4645577025d,0,"Boat or Ferry",http://tour-pedia.org/api/getPlaceDetails?id=31107,http://tour-pedia.org/api/getReviewsByPlaceId?placeId=31107
Laadbandje,poi,31109,52.407341032384,4.7780227661133,Amsterdam,"Graniet Import",4d071602c2e537044064c767,0,"Boat or Ferry",http://tour-pedia.org/api/getPlaceDetails?id=31109,http://tour-pedia.org/api/getReviewsByPlaceId?placeId=31109
,poi,31110,52.399659076652,4.771978029293,Amsterdam,"Pendelbus naar Sloterdijk",4e46dba9887781a619b0d8d0,0,"Bus Line",http://tour-pedia.org/api/getPlaceDetails?id=31110,http://tour-pedia.org/api/getReviewsByPlaceId?placeId=31110
,poi,31111,52.398441,4.770906,Amsterdam,Westpoortweg,4d10820538bb6ea869b4c4aa,0,Road,http://tour-pedia.org/api/getPlaceDetails?id=31111,http://tour-pedia.org/api/getReviewsByPlaceId?placeId=31111
,poi,31112,52.398511290445,4.7714451518623,Amsterdam,S102,4c2b448a8ef52d7f590e31ba,0,Road,http://tour-pedia.org/api/getPlaceDetails?id=31112,http://tour-pedia.org/api/getReviewsByPlaceId?placeId=31112
"Dortmuiden, Amsterdam",poi,31113,52.39759758928,4.7786084314431,Amsterdam,"Bushalte Dortmuiden",4eca79419a52756c5924aa72,0,"Bus Line",http://tour-pedia.org/api/getPlaceDetails?id=31113,http://tour-pedia.org/api/getReviewsByPlaceId?placeId=31113
,poi,31114,52.394012785261,4.7782552710367,Amsterdam,"Toerit A5",5211b13511d271f0a2c687a1,0,Road,http://tour-pedia.org/api/getPlaceDetails?id=31114,http://tour-pedia.org/api/getReviewsByPlaceId?placeId=31114
,poi,31115,52.399101257324,4.7783908843994,Amsterdam,aziehavenweg,4fda6577e4b013d81a98d86a,0,Train,http://tour-pedia.org/api/getPlaceDetails?id=31115,http://tour-pedia.org/api/getReviewsByPlaceId?placeId=31115
,poi,31116,52.394642,4.778393,Amsterdam,"Tanker Nina",4e5179c2d4c0b6da5d9afa72,0,"Boat or Ferry",http://tour-pedia.org/api/getPlaceDetails?id=31116,http://tour-pedia.org/api/getReviewsByPlaceId?placeId=31116
,poi,31117,52.393767141836,4.7784708141292,Amsterdam,"loccenlocatie Aziëhavenweg Houtrakpolder",515ef942e4b0d2e67511c6e6,0,Platform,http://tour-pedia.org/api/getPlaceDetails?id=31117,http://tour-pedia.org/api/getReviewsByPlaceId?placeId=31117
,poi,31119,52.386517821182,4.7682745803367,Amsterdam,"A5 richting Coentunnel",51963a6a498ede578e939232,0,Road,http://tour-pedia.org/api/getPlaceDetails?id=31119,http://tour-pedia.org/api/getReviewsByPlaceId?placeId=31119
,poi,31120,52.387663,4.768297,Amsterdam,"Nightliner N80",4cccd0e897d0224bb3b662b8,0,"General Travel",http://tour-pedia.org/api/getPlaceDetails?id=31120,http://tour-pedia.org/api/getReviewsByPlaceId?placeId=31120
,poi,31123,52.383909643466,4.7612274499493,Amsterdam,"Rijkeboerweg halfweg",4de94ac852b1741cdb192e2d,0,Road,http://tour-pedia.org/api/getPlaceDetails?id=31123,http://tour-pedia.org/api/getReviewsByPlaceId?placeId=31123
,poi,31124,52.384005389528,4.7695688833648,Amsterdam,"File N200 HMP 4,5",4f6b5dfce4b0816c3563a413,0,Road,http://tour-pedia.org/api/getPlaceDetails?id=31124,http://tour-pedia.org/api/getReviewsByPlaceId?placeId=31124
,poi,31125,52.384265899658,4.7663726806641,Amsterdam,"Sprinter naar Haarlem",5263d6f011d2d296395f1a45,0,Train,http://tour-pedia.org/api/getPlaceDetails?id=31125,http://tour-pedia.org/api/getReviewsByPlaceId?placeId=31125
,poi,31127,52.38398,4.769607,Amsterdam,"Gertjan's bolide",507ed81fe4b03317a9817cc6,0,"Moving Target",http://tour-pedia.org/api/getPlaceDetails?id=31127,http://tour-pedia.org/api/getReviewsByPlaceId?placeId=31127
,poi,31130,52.389334,4.777617,Amsterdam,Daveren,504d70dce4b06b302232f907,0,Road,http://tour-pedia.org/api/getPlaceDetails?id=31130,http://tour-pedia.org/api/getReviewsByPlaceId?placeId=31130
"amsterdam en omstreken",poi,31132,52.384043224818,4.7768994471739,Amsterdam,"Keihard Scheuren In Een Spiksplinter Nieuwe BMW",4d5d00652a31a1cd6bc64df1,0,Road,http://tour-pedia.org/api/getPlaceDetails?id=31132,http://tour-pedia.org/api/getReviewsByPlaceId?placeId=31132
,poi,31133,52.384047242413,4.7777100175713,Amsterdam,N200,4bd1a53ccaff95216ffcd0f0,0,Road,http://tour-pedia.org/api/getPlaceDetails?id=31133,http://tour-pedia.org/api/getReviewsByPlaceId?placeId=31133
Osdorperweg,poi,31142,52.371616738821,4.7759628295898,Amsterdam,Osdorperweg,4d8d9336cb9b224bde327041,0,Road,http://tour-pedia.org/api/getPlaceDetails?id=31142,http://tour-pedia.org/api/getReviewsByPlaceId?placeId=31142
,poi,31150,52.353776513569,4.7744715213776,Amsterdam,"Tramlijn 1",4baf8b39f964a52029093ce3,0,"Light Rail",http://tour-pedia.org/api/getPlaceDetails?id=31150,http://tour-pedia.org/api/getReviewsByPlaceId?placeId=31150
,poi,31152,52.352938273346,4.7766919003924,Amsterdam,"Tramhalte Pilatus",4c1e22e4b9f876b098977e46,0,"Light Rail",http://tour-pedia.org/api/getPlaceDetails?id=31152,http://tour-pedia.org/api/getReviewsByPlaceId?placeId=31152
,poi,31153,52.35375,4.774342,Amsterdam,"Tramhalte Matterhorn",50fba922e4b0fb41a55442d7,0,"Light Rail",http://tour-pedia.org/api/getPlaceDetails?id=31153,http://tour-pedia.org/api/getReviewsByPlaceId?placeId=31153
"Schotse hooglanden 18",poi,31158,52.353059,4.771556,Amsterdam,"Schotse Hooglanden",4c67051cb80abe9a39d2cee5,0,Road,http://tour-pedia.org/api/getPlaceDetails?id=31158,http://tour-pedia.org/api/getReviewsByPlaceId?placeId=31158
Kiepsteiger,poi,31162,52.409284,4.783095,Amsterdam,"Graniet Import",4cff4c4975d3236a5f79e4f7,0,"Boat or Ferry",http://tour-pedia.org/api/getPlaceDetails?id=31162,http://tour-pedia.org/api/getReviewsByPlaceId?placeId=31162
,poi,31163,52.391845703125,4.7808923721313,Amsterdam,"Abberdaan Bushalte",50758fc2e4b0aadb131a12f3,0,"Bus Station",http://tour-pedia.org/api/getPlaceDetails?id=31163,http://tour-pedia.org/api/getReviewsByPlaceId?placeId=31163
,poi,31164,52.384044239248,4.7793763481174,Amsterdam,Haarlemmerweg,511e23e3e4b06a8714447080,0,Road,http://tour-pedia.org/api/getPlaceDetails?id=31164,http://tour-pedia.org/api/getReviewsByPlaceId?placeId=31164
,poi,31165,52.389656066895,4.7840189933777,Amsterdam,"UC Transports",51c7dbd7498edd330e07481e,0,Road,http://tour-pedia.org/api/getPlaceDetails?id=31165,http://tour-pedia.org/api/getReviewsByPlaceId?placeId=31165
,poi,31166,52.384192,4.783406,Amsterdam,"NS Boot Amsterdam-Haarlem",4dd0364222718eed7a649b95,0,"Boat or Ferry",http://tour-pedia.org/api/getPlaceDetails?id=31166,http://tour-pedia.org/api/getReviewsByPlaceId?placeId=31166
,poi,31168,52.382186350325,4.791035710785,Amsterdam,"bushalte jm den uylstraat",4d81f6b90d5b8cfa465b4928,0,"Bus Station",http://tour-pedia.org/api/getPlaceDetails?id=31168,http://tour-pedia.org/api/getReviewsByPlaceId?placeId=31168
,poi,31169,52.382432650066,4.7909473253263,Amsterdam,"Vliegveld Amsterdam-West",4ced7a393b03f04d338434dc,0,Airport,http://tour-pedia.org/api/getPlaceDetails?id=31169,http://tour-pedia.org/api/getReviewsByPlaceId?placeId=31169
"Jan Rebelstraat 16c",poi,31170,52.361531,4.786076,Amsterdam,Nuhr.nl,50b92319e4b054161b762728,0,"General Travel",http://tour-pedia.org/api/getPlaceDetails?id=31170,http://tour-pedia.org/api/getReviewsByPlaceId?placeId=31170
Nisserstraat,poi,31171,52.350532,4.782556,Amsterdam,"Tramhalte Nisserstraat",4ccc1a1072106dcb87fb9899,0,"Light Rail",http://tour-pedia.org/api/getPlaceDetails?id=31171,http://tour-pedia.org/api/getReviewsByPlaceId?placeId=31171
,poi,31172,52.360452,4.783946,Amsterdam,"West autoverhuur",4dce2015fa7664b7c6a0a30c,0,"Rental Car Location",http://tour-pedia.org/api/getPlaceDetails?id=31172,http://tour-pedia.org/api/getReviewsByPlaceId?placeId=31172
Inaristraat,poi,31173,52.350359686121,4.7830879790239,Amsterdam,"Tramhalte Inaristraat",4cd989c8da85224bb74052ca,0,"Light Rail",http://tour-pedia.org/api/getPlaceDetails?id=31173,http://tour-pedia.org/api/getReviewsByPlaceId?placeId=31173
,poi,31174,52.361480586728,4.7861060938645,Amsterdam,"karins choice",524eacde498e21d16f360b1c,0,"General Travel",http://tour-pedia.org/api/getPlaceDetails?id=31174,http://tour-pedia.org/api/getReviewsByPlaceId?placeId=31174
,poi,31175,52.355400576315,4.7862397189171,Amsterdam,"tramhalte osdorp dijkgraafplein",5156f407e4b0702abf90a430,0,"Bus Station",http://tour-pedia.org/api/getPlaceDetails?id=31175,http://tour-pedia.org/api/getReviewsByPlaceId?placeId=31175
,poi,31177,52.3559,4.78435,Amsterdam,"E190 Simulator FSC",4ef2010ab8f7f381f6682829,0,Plane,http://tour-pedia.org/api/getPlaceDetails?id=31177,http://tour-pedia.org/api/getReviewsByPlaceId?placeId=31177
,poi,31178,52.362158419267,4.7850424460541,Amsterdam,"The Brick near the TNT Post",4e33d2a77d8b6946c1f2af04,0,Road,http://tour-pedia.org/api/getPlaceDetails?id=31178,http://tour-pedia.org/api/getReviewsByPlaceId?placeId=31178
,poi,31179,52.361435,4.785744,Amsterdam,"Collewijn Verkeersschool",4fedf83ce4b09cfafd557793,0,"Moving Target",http://tour-pedia.org/api/getPlaceDetails?id=31179,http://tour-pedia.org/api/getReviewsByPlaceId?placeId=31179
,poi,31180,52.351014,4.780674,Amsterdam,"The Happy Hydrant",4e393d84d4c046ee86b7809f,0,Taxi,http://tour-pedia.org/api/getPlaceDetails?id=31180,http://tour-pedia.org/api/getReviewsByPlaceId?placeId=31180
Ecuplein,poi,31182,52.3499,4.788668,Amsterdam,"Tramhalte Ecuplein",4cd98a2b145fa1cd45250cbd,0,"Light Rail",http://tour-pedia.org/api/getPlaceDetails?id=31182,http://tour-pedia.org/api/getReviewsByPlaceId?placeId=31182
"Somewhere in Europe",poi,31198,52.426047,4.786202,Amsterdam,"Ship ""Somtrans IV""",4dd557edc65be32e5f9a2346,0,"Boat or Ferry",http://tour-pedia.org/api/getPlaceDetails?id=31198,http://tour-pedia.org/api/getReviewsByPlaceId?placeId=31198
,poi,31206,52.398754,4.790045,Amsterdam,"Rookplatform@amsterdam sloterdijk",4eb956528b81a81f922fb022,0,"Train Station",http://tour-pedia.org/api/getPlaceDetails?id=31206,http://tour-pedia.org/api/getReviewsByPlaceId?placeId=31206
Pleimuiden...,poi,31207,52.390856,4.786569,Amsterdam,Lavatory,4dca80c01f6e28126777f1d1,0,"Rest Area",http://tour-pedia.org/api/getPlaceDetails?id=31207,http://tour-pedia.org/api/getReviewsByPlaceId?placeId=31207
,poi,31208,52.392397,4.791901,Amsterdam,"Flying Finish KP 2-4-6 Abberdaan, Rallypro Amsterdam Shortrally",50431667e4b0c996b36b6634,0,Road,http://tour-pedia.org/api/getPlaceDetails?id=31208,http://tour-pedia.org/api/getReviewsByPlaceId?placeId=31208
,poi,31209,52.390003,4.790648,Amsterdam,"Verzamelplek Officials Annex Start KP1-3-5 Abberdaan, Rallypro Amsterdam Shortrally",5222ccc711d219b3660cd6b0,0,Road,http://tour-pedia.org/api/getPlaceDetails?id=31209,http://tour-pedia.org/api/getReviewsByPlaceId?placeId=31209
,poi,31210,52.390501478393,4.791719400122,Amsterdam,"bushalte Jarmuiden",4f315adce4b0e6be3b03404a,0,"Bus Station",http://tour-pedia.org/api/getPlaceDetails?id=31210,http://tour-pedia.org/api/getReviewsByPlaceId?placeId=31210
"Freule Wttewaalpad",poi,31211,52.380134151667,4.7894213583181,Amsterdam,"Bushalte 21 Freule Wttewaalpad",507a5f39e4b00760cb70609b,0,"Bus Line",http://tour-pedia.org/api/getPlaceDetails?id=31211,http://tour-pedia.org/api/getReviewsByPlaceId?placeId=31211
,poi,31212,52.361167463102,4.7886391378205,Amsterdam,"Bushalte Jan Rebelstraat",4fb6ba2ee4b0be3536027ec2,0,"Bus Line",http://tour-pedia.org/api/getPlaceDetails?id=31212,http://tour-pedia.org/api/getReviewsByPlaceId?placeId=31212
,poi,31213,52.359192,4.788278,Amsterdam,"LangsH2O, Amsterdam",4bface3cb182c9b69dd87a5a,0,Road,http://tour-pedia.org/api/getPlaceDetails?id=31213,http://tour-pedia.org/api/getReviewsByPlaceId?placeId=31213
Dijkgraafplein,poi,31214,52.356575962989,4.7919391062696,Amsterdam,"Tram 17 Osdorp - Amsterdam Centraal",4be2fa61d27a20a1c7e0905b,0,"Light Rail",http://tour-pedia.org/api/getPlaceDetails?id=31214,http://tour-pedia.org/api/getReviewsByPlaceId?placeId=31214
Tussenmeer,poi,31215,52.356412,4.79163,Amsterdam,"Halte Baden Powellweg",4d5d727bbee2ec4aae487092,0,"Bus Station",http://tour-pedia.org/api/getPlaceDetails?id=31215,http://tour-pedia.org/api/getReviewsByPlaceId?placeId=31215
,poi,31216,52.356559,4.791534,Amsterdam,"Tramhalte Baden Powellweg",4fd74face4b08209fe1ee45b,0,"Light Rail",http://tour-pedia.org/api/getPlaceDetails?id=31216,http://tour-pedia.org/api/getReviewsByPlaceId?placeId=31216
,poi,31217,52.362239221032,4.7940486614843,Amsterdam,"Stef En Karen",4de95b0cae602933190885df,0,"Boat or Ferry",http://tour-pedia.org/api/getPlaceDetails?id=31217,http://tour-pedia.org/api/getReviewsByPlaceId?placeId=31217
,poi,31218,52.358420256821,4.7952523046984,Amsterdam,Tussenmeer,502f626ee4b0a1e592d0b42c,0,Road,http://tour-pedia.org/api/getPlaceDetails?id=31218,http://tour-pedia.org/api/getReviewsByPlaceId?placeId=31218
"Pieter Calandlaan",poi,31219,52.350938972198,4.7943842411041,Amsterdam,"Bushalte Baden Powellweg",4b5f475ef964a52096b129e3,0,"Bus Station",http://tour-pedia.org/api/getPlaceDetails?id=31219,http://tour-pedia.org/api/getReviewsByPlaceId?placeId=31219
,poi,31224,52.4038801,4.7992644,Amsterdam,"Intercity Sloterdijk - Hoorn",4eccf9ec61af1f8ac3f9b384,0,Train,http://tour-pedia.org/api/getPlaceDetails?id=31224,http://tour-pedia.org/api/getReviewsByPlaceId?placeId=31224
,poi,31225,52.399102623996,4.7942673423204,Amsterdam,"Emplacementje Aziëhaven, Houtrakpolder (Hrp)",4fe1cccfe4b0085f8785c132,0,Train,http://tour-pedia.org/api/getPlaceDetails?id=31225,http://tour-pedia.org/api/getReviewsByPlaceId?placeId=31225
,poi,31226,52.402312,4.800449,Amsterdam,"HUSA(acts) HQ-A'dam",4e36d017ae60d86c3acd7686,0,Train,http://tour-pedia.org/api/getPlaceDetails?id=31226,http://tour-pedia.org/api/getReviewsByPlaceId?placeId=31226
,poi,31227,52.40066,4.803094,Amsterdam,"Intercity Zaandam Amsterdam Amstel",4f619c7ce4b06b1a17c91fdd,0,"Moving Target",http://tour-pedia.org/api/getPlaceDetails?id=31227,http://tour-pedia.org/api/getReviewsByPlaceId?placeId=31227
,poi,31228,52.397552827953,4.7951144207283,Amsterdam,"Bushalte Westpoortweg",4ec136ddf5b93923c21d78e1,0,"Bus Line",http://tour-pedia.org/api/getPlaceDetails?id=31228,http://tour-pedia.org/api/getReviewsByPlaceId?placeId=31228
Australiehavenweg,poi,31229,52.3990355,4.7960442,Amsterdam,"AEB amsterdam",4f57bf99e4b0db20501f677d,0,"Rest Area",http://tour-pedia.org/api/getPlaceDetails?id=31229,http://tour-pedia.org/api/getReviewsByPlaceId?placeId=31229
,poi,31230,52.395999,4.794798,Amsterdam,"Halte Bornhout",4de6654ed22d7fddb9d601e7,0,"Bus Line",http://tour-pedia.org/api/getPlaceDetails?id=31230,http://tour-pedia.org/api/getReviewsByPlaceId?placeId=31230
"Noordzeeweg 50",poi,31231,52.396213,4.80065,Amsterdam,"Bakerstreet Benelux :: Noordzeeweg 50",4a27db86f964a5204d941fe3,0,Road,http://tour-pedia.org/api/getPlaceDetails?id=31231,http://tour-pedia.org/api/getReviewsByPlaceId?placeId=31231
,poi,31232,52.399151319839,4.8032959424248,Amsterdam,"Trein Sloterdijk - Den Helder Zuid",51b80cae498e175a1abb4ec0,0,Train,http://tour-pedia.org/api/getPlaceDetails?id=31232,http://tour-pedia.org/api/getReviewsByPlaceId?placeId=31232
"Sprinter Zandvoort Aan Zee naar Amsterdam CS",poi,31233,52.389114379883,4.8037161827087,Amsterdam,Halfweg,4fab52bde4b08190cc0d59a6,0,Train,http://tour-pedia.org/api/getPlaceDetails?id=31233,http://tour-pedia.org/api/getReviewsByPlaceId?placeId=31233
"Sierenborch 17",poi,31234,52.390745211527,4.8019905417385,Amsterdam,"Alphabet Rental Services Amsterdam",4eeef59461af1accb06d0393,0,"Rental Car Location",http://tour-pedia.org/api/getPlaceDetails?id=31234,http://tour-pedia.org/api/getReviewsByPlaceId?placeId=31234
Overal,poi,31235,52.383675,4.797124,Amsterdam,R2D2,4c9479d903413704848672ef,0,Taxi,http://tour-pedia.org/api/getPlaceDetails?id=31235,http://tour-pedia.org/api/getReviewsByPlaceId?placeId=31235
"Hornweg 54",poi,31236,52.389655296017,4.8025204204075,Amsterdam,"T.I.P trailer Rental",4de364a7e4cd056f745a33f2,0,"Rental Car Location",http://tour-pedia.org/api/getPlaceDetails?id=31236,http://tour-pedia.org/api/getReviewsByPlaceId?placeId=31236
"Moving Target!",poi,31238,52.376064207662,4.7976565361023,Amsterdam,"Bus 21 Geuzenveld - Centraal Station",4d2c94cd888af04dd5aae9af,0,"Bus Line",http://tour-pedia.org/api/getPlaceDetails?id=31238,http://tour-pedia.org/api/getReviewsByPlaceId?placeId=31238
"Moving Target!",poi,31239,52.379705782046,4.8016121044052,Amsterdam,"Bus 61 Sloterdijk - Slotervaart",5107c4bae4b015f2aa8fc2be,0,"Bus Line",http://tour-pedia.org/api/getPlaceDetails?id=31239,http://tour-pedia.org/api/getReviewsByPlaceId?placeId=31239
,poi,31240,52.38387201546,4.8031650745149,Amsterdam,"Haarlemmerweg Halfweg-Amsterdam",4e72ec8552b145ffbf574704,0,Road,http://tour-pedia.org/api/getPlaceDetails?id=31240,http://tour-pedia.org/api/getReviewsByPlaceId?placeId=31240
Aalbersestraat,poi,31241,52.382431304738,4.7979222411216,Amsterdam,"Bushalte Aalbersestraat",4c970d3172dd224b8f79b191,0,"Bus Station",http://tour-pedia.org/api/getPlaceDetails?id=31241,http://tour-pedia.org/api/getReviewsByPlaceId?placeId=31241
,poi,31243,52.376065,4.797573,Amsterdam,"Bushalte De Sav. Lohmanstraat",4d5ba140590b224be1db976d,0,"Bus Station",http://tour-pedia.org/api/getPlaceDetails?id=31243,http://tour-pedia.org/api/getReviewsByPlaceId?placeId=31243
,poi,31245,52.375119514273,4.8012091486496,Amsterdam,"Bushalte Troelstralaan",4d63d150dcafa1cd94a97511,0,"Bus Station",http://tour-pedia.org/api/getPlaceDetails?id=31245,http://tour-pedia.org/api/getReviewsByPlaceId?placeId=31245
,poi,31246,52.376164325,4.8022066,Amsterdam,"Dylan, The Lancia Delta",4e6b263c52b1c120601fb49b,0,Road,http://tour-pedia.org/api/getPlaceDetails?id=31246,http://tour-pedia.org/api/getReviewsByPlaceId?placeId=31246
,poi,31247,52.376100656358,4.8021474908952,Amsterdam,"Mike The Mountainbike",4ece1bb0490168f8cd313716,0,"General Travel",http://tour-pedia.org/api/getPlaceDetails?id=31247,http://tour-pedia.org/api/getReviewsByPlaceId?placeId=31247
,poi,31252,52.366722106934,4.8005995750427,Amsterdam,"Bus 268",4e70ce7f7d8b21fe9d6d6700,0,"Bus Line",http://tour-pedia.org/api/getPlaceDetails?id=31252,http://tour-pedia.org/api/getReviewsByPlaceId?placeId=31252
Nieuwelaan,poi,31254,52.362352044021,4.8004586146025,Amsterdam,Nieuwelaan,4eec5857be7b6d62ff394c2b,0,Road,http://tour-pedia.org/api/getPlaceDetails?id=31254,http://tour-pedia.org/api/getReviewsByPlaceId?placeId=31254
,poi,31255,52.35800804734,4.7987667575227,Amsterdam,"Tramhalte Hoekenes",4c5a53a6f346c92803ea4eca,0,"Light Rail",http://tour-pedia.org/api/getPlaceDetails?id=31255,http://tour-pedia.org/api/getReviewsByPlaceId?placeId=31255
,poi,31257,52.356728,4.798074,Amsterdam,"Bushalte Wolbrantskerkweg",4e0de9ba52b1b27c1b8157c7,0,"Bus Station",http://tour-pedia.org/api/getPlaceDetails?id=31257,http://tour-pedia.org/api/getReviewsByPlaceId?placeId=31257
,poi,31258,52.351203052956,4.7957668741343,Amsterdam,"Bus 192 richting Schiphol Zuid",4ec7ca0dbe7ba4fc6ec763f9,0,"Bus Line",http://tour-pedia.org/api/getPlaceDetails?id=31258,http://tour-pedia.org/api/getReviewsByPlaceId?placeId=31258
,poi,31259,52.359097001333,4.8031913426963,Amsterdam,"Tramhalte Osdorpplein",4d3db66bd625224bc05f9cfa,0,"Light Rail",http://tour-pedia.org/api/getPlaceDetails?id=31259,http://tour-pedia.org/api/getReviewsByPlaceId?placeId=31259
,poi,31260,52.356871144313,4.7962731979907,Amsterdam,"Kruising (Wolbrantskerkweg - Tussenmeer)",4e230cb688774a43b77a0d50,0,Road,http://tour-pedia.org/api/getPlaceDetails?id=31260,http://tour-pedia.org/api/getReviewsByPlaceId?placeId=31260
,poi,31261,52.356767,4.797194,Amsterdam,"4e Wolbrantskerkweg",4e0dcd03ae603a50b53be191,0,"Rest Area",http://tour-pedia.org/api/getPlaceDetails?id=31261,http://tour-pedia.org/api/getReviewsByPlaceId?placeId=31261
,poi,31263,52.356664,4.797654,Amsterdam,"3e Wolbrantskerkweg",4e0dd031c65ba20da21993d5,0,"Rest Area",http://tour-pedia.org/api/getPlaceDetails?id=31263,http://tour-pedia.org/api/getReviewsByPlaceId?placeId=31263
,poi,31264,52.3555,4.796847,Amsterdam,"Ekingensrraat Amsterdam",4d36e0cc036c548186c04789,0,Road,http://tour-pedia.org/api/getPlaceDetails?id=31264,http://tour-pedia.org/api/getReviewsByPlaceId?placeId=31264
,poi,31265,52.356963,4.79797,Amsterdam,"2e Wolbrantskerkweg",4e0dd0a31838f62321be4a9b,0,"Rest Area",http://tour-pedia.org/api/getPlaceDetails?id=31265,http://tour-pedia.org/api/getReviewsByPlaceId?placeId=31265
"M Hanenbergstraat 17",poi,31266,52.359396,4.802319,Amsterdam,"Surinam Airways HQ",513b1ad9e4b0a2c58b0d43fe,0,"Travel Lounge",http://tour-pedia.org/api/getPlaceDetails?id=31266,http://tour-pedia.org/api/getReviewsByPlaceId?placeId=31266
,poi,31267,52.356664,4.797741,Amsterdam,"1e Wolbrantskerkweg",4e0dd156483bc2b5f47af9af,0,"Rest Area",http://tour-pedia.org/api/getPlaceDetails?id=31267,http://tour-pedia.org/api/getReviewsByPlaceId?placeId=31267
,poi,31268,52.359760284424,4.7980151176453,Amsterdam,"the Love Taxi aka Naughty Racer",4ecd2e3e722eff7fff207060,0,Taxi,http://tour-pedia.org/api/getPlaceDetails?id=31268,http://tour-pedia.org/api/getReviewsByPlaceId?placeId=31268
,poi,31270,52.358516631701,4.7996678892355,Amsterdam,"Bushalte Hoekenes",4e315c0cd1643f195b938584,0,"Bus Line",http://tour-pedia.org/api/getPlaceDetails?id=31270,http://tour-pedia.org/api/getReviewsByPlaceId?placeId=31270
,poi,31272,52.358564,4.801076,Amsterdam,"De Rooi Koffer En Lederwaren",4e0ec779b61c3fe478074b33,0,"General Travel",http://tour-pedia.org/api/getPlaceDetails?id=31272,http://tour-pedia.org/api/getReviewsByPlaceId?placeId=31272
,poi,31273,52.358577622517,4.8024506671554,Amsterdam,"Nachtbus 353 naar Centraal Station",50555ba5e4b0244ddea93976,0,"Bus Line",http://tour-pedia.org/api/getPlaceDetails?id=31273,http://tour-pedia.org/api/getReviewsByPlaceId?placeId=31273
,poi,31274,52.352541,4.802444,Amsterdam,"Tramhalte Hoekenes",4bd1c6e3462cb713a9ceda07,0,"Light Rail",http://tour-pedia.org/api/getPlaceDetails?id=31274,http://tour-pedia.org/api/getReviewsByPlaceId?placeId=31274
,poi,31275,52.343919,4.793361,Amsterdam,Akerschutsluis,4fc2281de4b08acaf4e4f491,0,Pier,http://tour-pedia.org/api/getPlaceDetails?id=31275,http://tour-pedia.org/api/getReviewsByPlaceId?placeId=31275
"Jan van Zutphenstraat",poi,31276,52.349329928468,4.8005742524046,Amsterdam,"Bushalte Jan van Zutphenplantsoen",4cce8062c9b846880bf4c8c3,0,"Bus Station",http://tour-pedia.org/api/getPlaceDetails?id=31276,http://tour-pedia.org/api/getReviewsByPlaceId?placeId=31276
,poi,31277,52.34262,4.793362,Amsterdam,"Norwegian Flight 3541",520282a4498e3fefaa72977e,0,"Moving Target",http://tour-pedia.org/api/getPlaceDetails?id=31277,http://tour-pedia.org/api/getReviewsByPlaceId?placeId=31277
,poi,31278,52.343236,4.795088,Amsterdam,"Bus 145 Amsterdam - Hoofddorp",515e7c35e4b03f2e11ad0cf6,0,"Moving Target",http://tour-pedia.org/api/getPlaceDetails?id=31278,http://tour-pedia.org/api/getReviewsByPlaceId?placeId=31278
Kortrijk,poi,31279,52.344661797482,4.8010224983146,Amsterdam,"Bushalte Kortrijk",4d8a8453bc848cfaaf1ddc2b,0,"Bus Line",http://tour-pedia.org/api/getPlaceDetails?id=31279,http://tour-pedia.org/api/getReviewsByPlaceId?placeId=31279
,poi,31280,52.343239,4.797512,Amsterdam,"Bushalte Osdorperweg",50f4f4dee4b0efe10aaaf931,0,"Bus Line",http://tour-pedia.org/api/getPlaceDetails?id=31280,http://tour-pedia.org/api/getReviewsByPlaceId?placeId=31280
,poi,31281,52.341862,4.793646,Amsterdam,"Bushalte Langsom",4f3a1207e4b0e724f0d042c6,0,"Bus Station",http://tour-pedia.org/api/getPlaceDetails?id=31281,http://tour-pedia.org/api/getReviewsByPlaceId?placeId=31281
Hemtunnel,poi,31282,52.421503397042,4.8107608962995,Amsterdam,Hemtunnel,4d997c98942ba093677d9c8c,0,"General Travel",http://tour-pedia.org/api/getPlaceDetails?id=31282,http://tour-pedia.org/api/getReviewsByPlaceId?placeId=31282
,poi,31283,52.42191847552,4.80556330818,Amsterdam,"ADM Haven",4e73a378d22d2fd31464cae5,0,"General Travel",http://tour-pedia.org/api/getPlaceDetails?id=31283,http://tour-pedia.org/api/getReviewsByPlaceId?placeId=31283
,poi,31285,52.422965706704,4.8074521846542,Amsterdam,"Passing Westhaven",4e36c6891f6e9e21ad5bd525,0,"Boat or Ferry",http://tour-pedia.org/api/getPlaceDetails?id=31285,http://tour-pedia.org/api/getReviewsByPlaceId?placeId=31285
,poi,31286,52.422704,4.811071,Amsterdam,"Warmer Sloep",4e86eeb0b634f7b9e0fba7e6,0,"Boat or Ferry",http://tour-pedia.org/api/getPlaceDetails?id=31286,http://tour-pedia.org/api/getReviewsByPlaceId?placeId=31286
,poi,31290,52.40970000008,4.8035996965417,Amsterdam,"Houtmankade Zaandam",4dfdf41d1f6e05048d8afc4d,0,Road,http://tour-pedia.org/api/getPlaceDetails?id=31290,http://tour-pedia.org/api/getReviewsByPlaceId?placeId=31290
,poi,31291,52.407802581787,4.802170753479,Amsterdam,"Lijn 64",50ce2215e4b0373ccad551d2,0,"Bus Line",http://tour-pedia.org/api/getPlaceDetails?id=31291,http://tour-pedia.org/api/getReviewsByPlaceId?placeId=31291
,poi,31292,52.40301,4.802764,Amsterdam,"Intercity naar Den Helder",5151c3c1e4b0248880532e6e,0,"Moving Target",http://tour-pedia.org/api/getPlaceDetails?id=31292,http://tour-pedia.org/api/getReviewsByPlaceId?placeId=31292
,poi,31293,52.40028535806,4.804226627121,Amsterdam,"Intercity Amsterdam Sloterdijk - Alkmaar",4b7d4930f964a52066b62fe3,0,Train,http://tour-pedia.org/api/getPlaceDetails?id=31293,http://tour-pedia.org/api/getReviewsByPlaceId?placeId=31293
,poi,31294,52.399639,4.804436,Amsterdam,"Trein A'dam Sloterdijk - Enkhuizen",4d9044b35091a1cdb6b5b701,0,"Light Rail",http://tour-pedia.org/api/getPlaceDetails?id=31294,http://tour-pedia.org/api/getReviewsByPlaceId?placeId=31294
Noordzeeweg,poi,31295,52.399405,4.80473951,Amsterdam,"Trein Naar Zaandam",4c6aa31f35d3be9a30532206,0,Train,http://tour-pedia.org/api/getPlaceDetails?id=31295,http://tour-pedia.org/api/getReviewsByPlaceId?placeId=31295
,poi,31296,52.394773,4.80875,Amsterdam,"Bushalte Hornhaven",4ece225a77c8ea62f97ab89f,0,"Bus Station",http://tour-pedia.org/api/getPlaceDetails?id=31296,http://tour-pedia.org/api/getReviewsByPlaceId?placeId=31296
,poi,31297,52.393053,4.808294,Amsterdam,"Intercity Amsterdam Enkhuizen",50a24f67e4b0e39cef319728,0,"Moving Target",http://tour-pedia.org/api/getPlaceDetails?id=31297,http://tour-pedia.org/api/getReviewsByPlaceId?placeId=31297
,poi,31298,52.393333,4.808186,Amsterdam,"Intercity Sloterdijk - Hoorn",4ed770bbf5b915cfe2392529,0,Train,http://tour-pedia.org/api/getPlaceDetails?id=31298,http://tour-pedia.org/api/getReviewsByPlaceId?placeId=31298
,poi,31299,52.391793026827,4.8111800339207,Amsterdam,"Intercity Sloterdijk - Hoorn",4ecf870a0e01f1a87eb8e824,0,Train,http://tour-pedia.org/api/getPlaceDetails?id=31299,http://tour-pedia.org/api/getReviewsByPlaceId?placeId=31299
,poi,31300,52.37695,4.8061913251877,Amsterdam,"Tramhalte Colijnstraat",4bde7a14ffdec92883d3e8a1,0,"Light Rail",http://tour-pedia.org/api/getPlaceDetails?id=31300,http://tour-pedia.org/api/getReviewsByPlaceId?placeId=31300
,poi,31301,52.377118024949,4.804500862427,Amsterdam,"Eind van de Burgemeester Roellstraat",516584ebe4b0b3135f3fae2f,0,Road,http://tour-pedia.org/api/getPlaceDetails?id=31301,http://tour-pedia.org/api/getReviewsByPlaceId?placeId=31301
,poi,31302,52.377359595557,4.8041849593818,Amsterdam,"Dirk Sonoystraat",4eed11cf8231688f1df45a42,0,Road,http://tour-pedia.org/api/getPlaceDetails?id=31302,http://tour-pedia.org/api/getReviewsByPlaceId?placeId=31302
,poi,31303,52.38241028418,4.8056875150351,Amsterdam,"Bushalte Dr.H.Colijnstraat",4c2609d7a852c928e3d2e56c,0,"Bus Station",http://tour-pedia.org/api/getPlaceDetails?id=31303,http://tour-pedia.org/api/getReviewsByPlaceId?placeId=31303
,poi,31304,52.38438493,4.80809082,Amsterdam,S104,4dee18631f6e0f9053f12c9a,0,Road,http://tour-pedia.org/api/getPlaceDetails?id=31304,http://tour-pedia.org/api/getReviewsByPlaceId?placeId=31304
,poi,31305,52.377609909329,4.8066580295563,Amsterdam,"Dr. H. Colijnstraat",4fb0bf03e4b078fd5bdd2e16,0,Road,http://tour-pedia.org/api/getPlaceDetails?id=31305,http://tour-pedia.org/api/getReviewsByPlaceId?placeId=31305
"De Savornin Lohmanstraat",poi,31306,52.374900817871,4.8066630363464,Amsterdam,"Bushalte Dr. H. Colijnstraat",51d0b79b498ef7487d3b440e,0,"Bus Station",http://tour-pedia.org/api/getPlaceDetails?id=31306,http://tour-pedia.org/api/getReviewsByPlaceId?placeId=31306
,poi,31307,52.373633,4.811967,Amsterdam,"My Car",4ed23dc161af476c0ac48d18,0,Road,http://tour-pedia.org/api/getPlaceDetails?id=31307,http://tour-pedia.org/api/getReviewsByPlaceId?placeId=31307
,poi,31308,52.365032844403,4.8042217937701,Amsterdam,"Bushalte Oeverpad",4e1ebf69c65bd9e1fde073a8,0,"Bus Station",http://tour-pedia.org/api/getPlaceDetails?id=31308,http://tour-pedia.org/api/getReviewsByPlaceId?placeId=31308
,poi,31309,52.362245583508,4.8061936827518,Amsterdam,"Bushalte: Vrijzicht",4e772120fa76059701bc3e8a,0,"Bus Station",http://tour-pedia.org/api/getPlaceDetails?id=31309,http://tour-pedia.org/api/getReviewsByPlaceId?placeId=31309
,poi,31310,52.364668,4.802758,Amsterdam,"My Car Citroen",4e4b555c483bb8f059914a7e,0,Road,http://tour-pedia.org/api/getPlaceDetails?id=31310,http://tour-pedia.org/api/getReviewsByPlaceId?placeId=31310
,poi,31311,52.36096406992,4.806795008953,Amsterdam,"lijn 61",5231de7011d2228686082817,0,"Bus Line",http://tour-pedia.org/api/getPlaceDetails?id=31311,http://tour-pedia.org/api/getReviewsByPlaceId?placeId=31311
,poi,31312,52.366063080494,4.8058591751678,Amsterdam,"Stoplicht einde betaald parkeren Osdorp",4ebd80da9a52ad5047ae3d35,0,"General Travel",http://tour-pedia.org/api/getPlaceDetails?id=31312,http://tour-pedia.org/api/getReviewsByPlaceId?placeId=31312
"Moving Target!",poi,31314,52.359898618095,4.8062939504407,Amsterdam,"Bus 63 Osdorp de Aker - Lelylaan",4cfce607c51fa1cd3c3aee2b,0,"Bus Line",http://tour-pedia.org/api/getPlaceDetails?id=31314,http://tour-pedia.org/api/getReviewsByPlaceId?placeId=31314
,poi,31315,52.36006,4.804791,Amsterdam,"Laadpaal Osdorperplein",4fe5e767e4b010f80e3dd7c6,0,"Rest Area",http://tour-pedia.org/api/getPlaceDetails?id=31315,http://tour-pedia.org/api/getReviewsByPlaceId?placeId=31315
,poi,31316,52.361328,4.807038,Amsterdam,"Bus 192 Halte Osdorpplein",4d61718fd7206ea8dd6600f2,0,"Moving Target",http://tour-pedia.org/api/getPlaceDetails?id=31316,http://tour-pedia.org/api/getReviewsByPlaceId?placeId=31316
"Tram 17",poi,31317,52.359818171522,4.8072613200657,Amsterdam,"Tramhalte Ruimzicht",4e5c0d20183883e00c0431ad,0,"Light Rail",http://tour-pedia.org/api/getPlaceDetails?id=31317,http://tour-pedia.org/api/getReviewsByPlaceId?placeId=31317
"Osdorpplein 885",poi,31319,52.358032,4.80552,Amsterdam,"ANWB Winkel",4da7f24c4df0af29b702d367,0,"General Travel",http://tour-pedia.org/api/getPlaceDetails?id=31319,http://tour-pedia.org/api/getReviewsByPlaceId?placeId=31319
,poi,31321,52.359730233171,4.8075273283191,Amsterdam,"Bushalte Ruimzicht",4e7f17ab6c258cabb8f2bbcb,0,"Bus Station",http://tour-pedia.org/api/getPlaceDetails?id=31321,http://tour-pedia.org/api/getReviewsByPlaceId?placeId=31321
"Moving Target!",poi,31322,52.352266367692,4.808812531287,Amsterdam,"Bus 61 Slotervaart - Sloterdijk",4f3b79c2e4b01e3345f0a678,0,"Bus Line",http://tour-pedia.org/api/getPlaceDetails?id=31322,http://tour-pedia.org/api/getReviewsByPlaceId?placeId=31322
"Moving Target!",poi,31323,52.359550957839,4.8074685896213,Amsterdam,"Bus 19 Sloterdijk - Lelylaan",4e5cd17f45dd045aab52796e,0,"Bus Line",http://tour-pedia.org/api/getPlaceDetails?id=31323,http://tour-pedia.org/api/getReviewsByPlaceId?placeId=31323
,poi,31325,52.356879,4.809211,Amsterdam,"Bushalte Maaseikpad",51b9801d498e5904e2636a1e,0,"Bus Line",http://tour-pedia.org/api/getPlaceDetails?id=31325,http://tour-pedia.org/api/getReviewsByPlaceId?placeId=31325
"Moving Target!",poi,31326,52.344843001525,4.8040695285645,Amsterdam,"Tram 2 Nieuw Sloten - Amsterdam Centraal",4c72b05213228cfaf7b92b65,0,"Light Rail",http://tour-pedia.org/api/getPlaceDetails?id=31326,http://tour-pedia.org/api/getReviewsByPlaceId?placeId=31326
,poi,31327,52.345708,4.804194,Amsterdam,"Tramhalte Oudenaardeplantsoen",4c61038612e5c9280da6204c,0,"Light Rail",http://tour-pedia.org/api/getPlaceDetails?id=31327,http://tour-pedia.org/api/getReviewsByPlaceId?placeId=31327
,poi,31328,52.345206447512,4.8020694447481,Amsterdam,"Halte Brusselsingel",510e6f61e4b0428ede1fcd34,0,"Bus Line",http://tour-pedia.org/api/getPlaceDetails?id=31328,http://tour-pedia.org/api/getReviewsByPlaceId?placeId=31328
,poi,31329,52.353922,4.810868,Amsterdam,"ACM Verhuur",525b9ea4498ea0564a7a8258,0,"Rental Car Location",http://tour-pedia.org/api/getPlaceDetails?id=31329,http://tour-pedia.org/api/getReviewsByPlaceId?placeId=31329
,poi,31330,52.346389993103,4.8106135722253,Amsterdam,"Tramhalte Kasterleepark",4e1e8acf45dd3be9c4754747,0,"Light Rail",http://tour-pedia.org/api/getPlaceDetails?id=31330,http://tour-pedia.org/api/getReviewsByPlaceId?placeId=31330
"Laan van Vlaanderen",poi,31331,52.347168,4.805794,Amsterdam,"Bushalte Westmallepad",4d628765618aa090f6db14e2,0,"Bus Line",http://tour-pedia.org/api/getPlaceDetails?id=31331,http://tour-pedia.org/api/getReviewsByPlaceId?placeId=31331
Badhoevelaan,poi,31332,52.3433,4.798229,Amsterdam,"Badhoevelaan badhoevedorp",4e7fad2261afedef5c50e6dc,0,"Bus Line",http://tour-pedia.org/api/getPlaceDetails?id=31332,http://tour-pedia.org/api/getReviewsByPlaceId?placeId=31332
,poi,31333,52.346635883222,4.8076982414224,Amsterdam,Berlaarstraat,4e20903f18a88345f0420288,0,Road,http://tour-pedia.org/api/getPlaceDetails?id=31333,http://tour-pedia.org/api/getReviewsByPlaceId?placeId=31333
"J. De Koostraat",poi,31334,52.353988,4.810724,Amsterdam,"Eddie's Pimpin' Ride",50e04cc2e4b0c48b60a7ff5c,0,"Moving Target",http://tour-pedia.org/api/getPlaceDetails?id=31334,http://tour-pedia.org/api/getReviewsByPlaceId?placeId=31334
,poi,31343,52.342650716552,4.8052357600124,Amsterdam,"Gate F4",4f59d8c7e4b04e4607d75f28,0,"Airport Gate",http://tour-pedia.org/api/getPlaceDetails?id=31343,http://tour-pedia.org/api/getReviewsByPlaceId?placeId=31343
,poi,31344,52.34162902832,4.8100109100342,Amsterdam,"Nog Steeds Snoeren Langs De Weg.....",4e49709eaeb7de71b38a8d6a,0,"General Travel",http://tour-pedia.org/api/getPlaceDetails?id=31344,http://tour-pedia.org/api/getReviewsByPlaceId?placeId=31344
,poi,31352,52.414236463078,4.8130666179637,Amsterdam,"Westhaven Garage 2",4f3a44a3e4b093e26daa9ae8,0,"Boat or Ferry",http://tour-pedia.org/api/getPlaceDetails?id=31352,http://tour-pedia.org/api/getReviewsByPlaceId?placeId=31352
,poi,31353,52.41231921804,4.8117290973289,Amsterdam,"koperen ploeg",4fcc7b60e4b0abf44fde682d,0,Pier,http://tour-pedia.org/api/getPlaceDetails?id=31353,http://tour-pedia.org/api/getReviewsByPlaceId?placeId=31353
,poi,31354,52.405010461807,4.816434,Amsterdam,AMT,4dba88be6a23e2622da2f0a9,0,"Boat or Ferry",http://tour-pedia.org/api/getPlaceDetails?id=31354,http://tour-pedia.org/api/getReviewsByPlaceId?placeId=31354
,poi,31355,52.391508231652,4.8190694097116,Amsterdam,Seineweg,4cffc677f16054815ac89aea,0,Road,http://tour-pedia.org/api/getPlaceDetails?id=31355,http://tour-pedia.org/api/getReviewsByPlaceId?placeId=31355
,poi,31357,52.40080450764,4.8193371009413,Amsterdam,"Tanker Naduah",4e04cd6a45dd3d096d7f8c44,0,"Boat or Ferry",http://tour-pedia.org/api/getPlaceDetails?id=31357,http://tour-pedia.org/api/getReviewsByPlaceId?placeId=31357
,poi,31358,52.396394,4.819503,Amsterdam,"Intercity Deventer - Enkhuizen",5162d8d7e4b089c4e33e178e,0,"Moving Target",http://tour-pedia.org/api/getPlaceDetails?id=31358,http://tour-pedia.org/api/getReviewsByPlaceId?placeId=31358
,poi,31359,52.388697796327,4.8135066738439,Amsterdam,"Sprinter Amsterdam Sloterdijk Haarlem",4fad5246e4b054e6d990a3b8,0,Train,http://tour-pedia.org/api/getPlaceDetails?id=31359,http://tour-pedia.org/api/getReviewsByPlaceId?placeId=31359
,poi,31360,52.389607257696,4.8140748444982,Amsterdam,"Intercity Zandvoort aan Zee - Amsterdam Centraal",4e1e7af662e19e27e24ae2da,0,Train,http://tour-pedia.org/api/getPlaceDetails?id=31360,http://tour-pedia.org/api/getReviewsByPlaceId?placeId=31360
,poi,31361,52.390157248673,4.8160618129791,Amsterdam,"Trein naar Enkhuizen",4e0238c8d4c0836163de2828,0,"Moving Target",http://tour-pedia.org/api/getPlaceDetails?id=31361,http://tour-pedia.org/api/getReviewsByPlaceId?placeId=31361
,poi,31362,52.39086151123,4.8181262016296,Amsterdam,"zaandam bus",50ce219be4b05a8a237e662b,0,"Bus Station",http://tour-pedia.org/api/getPlaceDetails?id=31362,http://tour-pedia.org/api/getReviewsByPlaceId?placeId=31362
,poi,31363,52.376494,4.811703,Amsterdam,"Burgemeester Van leewenlaan",4e1e044262e123c353266b81,0,"Light Rail",http://tour-pedia.org/api/getPlaceDetails?id=31363,http://tour-pedia.org/api/getReviewsByPlaceId?placeId=31363
,poi,31365,52.383226088715,4.814960737697,Amsterdam,"Bus 21 richting Centrum",4cbfff6db6c4224bd15af694,0,"Bus Line",http://tour-pedia.org/api/getPlaceDetails?id=31365,http://tour-pedia.org/api/getReviewsByPlaceId?placeId=31365
,poi,31366,52.37659473001,4.8100805282593,Amsterdam,"Burgermeester Roellstraat",4fb0bd68e4b021a2c0d0cb2e,0,Road,http://tour-pedia.org/api/getPlaceDetails?id=31366,http://tour-pedia.org/api/getReviewsByPlaceId?placeId=31366
"Moving Target!",poi,31368,52.372835088521,4.8189640045166,Amsterdam,"Tram 7 Sloterpark - Flevopark",4c72b37613228cfa5fc32b65,0,"Light Rail",http://tour-pedia.org/api/getPlaceDetails?id=31368,http://tour-pedia.org/api/getReviewsByPlaceId?placeId=31368
"Moving Target!",poi,31369,52.372913690573,4.8190498352051,Amsterdam,"Tram 14 Sloterpark - Flevopark",4f32a873e4b092d58ceccda5,0,"Light Rail",http://tour-pedia.org/api/getPlaceDetails?id=31369,http://tour-pedia.org/api/getReviewsByPlaceId?placeId=31369
,poi,31370,52.375549,4.819632,Amsterdam,"Tramhalte Slotermeerlaan",4d88b16ff607a0936130db86,0,"Light Rail",http://tour-pedia.org/api/getPlaceDetails?id=31370,http://tour-pedia.org/api/getReviewsByPlaceId?placeId=31370
,poi,31372,52.37303,4.818865,Amsterdam,"Tramhalte Lijn 7/14 Sloterpark",4e6f8978a809952e23e89526,0,"Light Rail",http://tour-pedia.org/api/getPlaceDetails?id=31372,http://tour-pedia.org/api/getReviewsByPlaceId?placeId=31372
,poi,31374,52.357353368472,4.8150429176551,Amsterdam,"Bushalte Piet Wiedijkstraat",4d437c007e2e54816473568f,0,"Bus Station",http://tour-pedia.org/api/getPlaceDetails?id=31374,http://tour-pedia.org/api/getReviewsByPlaceId?placeId=31374
,poi,31375,52.357321,4.814631,Amsterdam,"Tramhalte Piet Wiedijkstraat",4da3496abf22a143c3d7c4f8,0,Subway,http://tour-pedia.org/api/getPlaceDetails?id=31375,http://tour-pedia.org/api/getReviewsByPlaceId?placeId=31375
,poi,31376,52.361584539726,4.8160285233142,Amsterdam,"Bushalte Maaseikpad",51d28b1f498e7c885b54bc04,0,"Bus Station",http://tour-pedia.org/api/getPlaceDetails?id=31376,http://tour-pedia.org/api/getReviewsByPlaceId?placeId=31376
,poi,31377,52.356585797911,4.8143140421773,Amsterdam,"F. thomasstraat",4d55c3189e508cfa1430049b,0,Road,http://tour-pedia.org/api/getPlaceDetails?id=31377,http://tour-pedia.org/api/getReviewsByPlaceId?placeId=31377
Osdorp,poi,31378,52.3541323,4.8138115,Amsterdam,"Tram Halte Meer en Vaart",4f42bf64e4b0def99625fbe6,0,"Light Rail",http://tour-pedia.org/api/getPlaceDetails?id=31378,http://tour-pedia.org/api/getReviewsByPlaceId?placeId=31378
Wannepad,poi,31380,52.343591200707,4.8166111057059,Amsterdam,Wannepad,4d6ad6067e3eba7adeb5ee4c,0,Road,http://tour-pedia.org/api/getPlaceDetails?id=31380,http://tour-pedia.org/api/getReviewsByPlaceId?placeId=31380
,poi,31382,52.347385406494,4.8119606971741,Amsterdam,"Feija's vroem Vroem",522cbbf511d2e3865ede1564,0,"Moving Target",http://tour-pedia.org/api/getPlaceDetails?id=31382,http://tour-pedia.org/api/getReviewsByPlaceId?placeId=31382
,poi,31383,52.34342880441,4.8124703656947,Amsterdam,"Sint Truidenstraat",4ff14c67e4b0dccbddbc1220,0,Road,http://tour-pedia.org/api/getPlaceDetails?id=31383,http://tour-pedia.org/api/getReviewsByPlaceId?placeId=31383
,poi,31384,52.345109,4.812582,Amsterdam,"Bushalte Hageland",516511dfe4b02f6c9c8a577e,0,"Bus Line",http://tour-pedia.org/api/getPlaceDetails?id=31384,http://tour-pedia.org/api/getReviewsByPlaceId?placeId=31384
"Laan van Vlaanderen",poi,31385,52.345908955101,4.8160001095161,Amsterdam,"Bushalte Antwerpenbaan",4c47359b1ddec92807a19c32,0,"Bus Station",http://tour-pedia.org/api/getPlaceDetails?id=31385,http://tour-pedia.org/api/getReviewsByPlaceId?placeId=31385
Plesmanlaan,poi,31387,52.350116,4.815657,Amsterdam,Plesmanlaan,4de27c29d22d2a4ecdc6ac20,0,Road,http://tour-pedia.org/api/getPlaceDetails?id=31387,http://tour-pedia.org/api/getReviewsByPlaceId?placeId=31387
"Laan van Vlaanderen",poi,31388,52.345858415885,4.8126824867921,Amsterdam,"Halte antwerpenbaan bus 195/95",4c7a9e31df08a1cdca45de5d,0,"Bus Station",http://tour-pedia.org/api/getPlaceDetails?id=31388,http://tour-pedia.org/api/getReviewsByPlaceId?placeId=31388
antwerpenbaan,poi,31389,52.34614644,4.81607842,Amsterdam,"Halte Antwerpenbaan",4d700962b73bb1f7d769b372,0,"Bus Line",http://tour-pedia.org/api/getPlaceDetails?id=31389,http://tour-pedia.org/api/getReviewsByPlaceId?placeId=31389
"Rijksweg A4",poi,31390,52.338066174106,4.8134279251099,Amsterdam,"A4 (1, Sloten)",4c387d181e06d13a3ac3773e,0,Road,http://tour-pedia.org/api/getPlaceDetails?id=31390,http://tour-pedia.org/api/getReviewsByPlaceId?placeId=31390
,poi,31391,52.342964501521,4.8130355005913,Amsterdam,Bastenakenstraat,4f7bf7e8e4b0dc29a632064d,0,Road,http://tour-pedia.org/api/getPlaceDetails?id=31391,http://tour-pedia.org/api/getReviewsByPlaceId?placeId=31391
,poi,31392,52.342978799608,4.8136027527209,Amsterdam,Luiksingel,4f795a60e4b05bfd59045c1d,0,Road,http://tour-pedia.org/api/getPlaceDetails?id=31392,http://tour-pedia.org/api/getReviewsByPlaceId?placeId=31392
,poi,31393,52.336951,4.809304,Amsterdam,"Thalys Train 9310 Amsterdam - Paris",525b733c11d27d7cab605aef,0,"Moving Target",http://tour-pedia.org/api/getPlaceDetails?id=31393,http://tour-pedia.org/api/getReviewsByPlaceId?placeId=31393
,poi,31394,52.342935351431,4.8123600131104,Amsterdam,Anderlechtlaan,4fad0b63e4b004877f754379,0,Road,http://tour-pedia.org/api/getPlaceDetails?id=31394,http://tour-pedia.org/api/getReviewsByPlaceId?placeId=31394
,poi,31396,52.338567384777,4.8163724374045,Amsterdam,"Trein Amsterdam-rotterdam",4f87bf19e4b0ddfd80acef8b,0,Train,http://tour-pedia.org/api/getPlaceDetails?id=31396,http://tour-pedia.org/api/getReviewsByPlaceId?placeId=31396
,poi,31397,52.3340403,4.8050456,Amsterdam,"Intercity Schiphol - Maastricht",5017e2f1e4b06e41966f6eba,0,"Moving Target",http://tour-pedia.org/api/getPlaceDetails?id=31397,http://tour-pedia.org/api/getReviewsByPlaceId?placeId=31397
,poi,31398,52.342997834867,4.8117041231559,Amsterdam,"Laan Van Vlaanderen",4fbcd8a5e4b04771aed908e6,0,Road,http://tour-pedia.org/api/getPlaceDetails?id=31398,http://tour-pedia.org/api/getReviewsByPlaceId?placeId=31398
,poi,31399,52.334172680441,4.8043317044769,Amsterdam,"A10 Afslag S107",51323697e4b02bbf4bf48d2d,0,Road,http://tour-pedia.org/api/getPlaceDetails?id=31399,http://tour-pedia.org/api/getReviewsByPlaceId?placeId=31399
,poi,31400,52.338324078015,4.815825355057,Amsterdam,"Trein Naar Purmerend",4e81d6a3490122d38919dfe6,0,Train,http://tour-pedia.org/api/getPlaceDetails?id=31400,http://tour-pedia.org/api/getReviewsByPlaceId?placeId=31400
Sloterweg,poi,31401,52.341854894816,4.8162139235316,Amsterdam,"Bushalte Sloterweg 865",515e7a5de4b0892243f8051d,0,"Bus Line",http://tour-pedia.org/api/getPlaceDetails?id=31401,http://tour-pedia.org/api/getReviewsByPlaceId?placeId=31401
,poi,31402,52.34175209171,4.8133681611589,Amsterdam,Sloterweg,501b8e0ee4b0a0e674dacb50,0,Road,http://tour-pedia.org/api/getPlaceDetails?id=31402,http://tour-pedia.org/api/getReviewsByPlaceId?placeId=31402
,poi,31403,52.33330105186,4.8064437093444,Amsterdam,"Lvnl Riekerpolder",509b9718e4b0c3ba38afee25,0,"Airport Terminal",http://tour-pedia.org/api/getPlaceDetails?id=31403,http://tour-pedia.org/api/getReviewsByPlaceId?placeId=31403
,poi,31404,52.338523065427,4.8162588809071,Amsterdam,"A10 Afslag Slotervaart 1 s 107",50ba6686e4b080f30086cffe,0,Road,http://tour-pedia.org/api/getPlaceDetails?id=31404,http://tour-pedia.org/api/getReviewsByPlaceId?placeId=31404
"Anton Schleperspad 10",poi,31416,52.334523,4.81469555,Amsterdam,"Veerpont Nieuwe Meer",4dc661a3d4c0ad9c0f9fdf23,0,"Boat or Ferry",http://tour-pedia.org/api/getPlaceDetails?id=31416,http://tour-pedia.org/api/getReviewsByPlaceId?placeId=31416
"Moving Target!",poi,31418,52.337862124444,4.8139979267053,Amsterdam,"Intercity Leiden Centraal - Schiphol",5093d591e4b0e34d61f293a5,0,Train,http://tour-pedia.org/api/getPlaceDetails?id=31418,http://tour-pedia.org/api/getReviewsByPlaceId?placeId=31418
,poi,31420,52.329022,4.816663,Amsterdam,"Allure (van Wijk 550)",5206283d11d29265f54688e4,0,Pier,http://tour-pedia.org/api/getPlaceDetails?id=31420,http://tour-pedia.org/api/getReviewsByPlaceId?placeId=31420
,poi,31421,52.329688465221,4.8214305056747,Amsterdam,"Veerpont Nieuwe Meer",4bfa90985ec320a1d5cb8bd3,0,"Boat or Ferry",http://tour-pedia.org/api/getPlaceDetails?id=31421,http://tour-pedia.org/api/getReviewsByPlaceId?placeId=31421
,poi,31423,52.342824438039,4.8119659164305,Amsterdam,Heverleestraat,507bc2efe4b0602b63e0cd3b,0,Road,http://tour-pedia.org/api/getPlaceDetails?id=31423,http://tour-pedia.org/api/getReviewsByPlaceId?placeId=31423
,poi,31424,52.343216745569,4.8137342113936,Amsterdam,Tienenpad,4f71b25ce4b068eb3e05be39,0,Road,http://tour-pedia.org/api/getPlaceDetails?id=31424,http://tour-pedia.org/api/getReviewsByPlaceId?placeId=31424
,poi,31425,52.329267,4.821171,Amsterdam,"Helena Pontje",4fc21e08e4b07ac9fcdfe4a5,0,"Boat or Ferry",http://tour-pedia.org/api/getPlaceDetails?id=31425,http://tour-pedia.org/api/getReviewsByPlaceId?placeId=31425
"1042AM Amsterdam",poi,31426,52.418700247157,4.826829228114,Amsterdam,"Pont Hemweg",4b27ae1af964a520758824e3,0,"Boat or Ferry",http://tour-pedia.org/api/getPlaceDetails?id=31426,http://tour-pedia.org/api/getReviewsByPlaceId?placeId=31426
"Hemkade Zaandam",poi,31428,52.418233430876,4.8269328750636,Amsterdam,"Rijkspont 5 Zaandam",4f84b215e4b02b876bbc1df8,0,"Boat or Ferry",http://tour-pedia.org/api/getPlaceDetails?id=31428,http://tour-pedia.org/api/getReviewsByPlaceId?placeId=31428
Zaandam,poi,31429,52.420676463284,4.8267313151185,Amsterdam,"Noordzee Kanaal",4c3304d33896e21e4b4ee990,0,"Boat or Ferry",http://tour-pedia.org/api/getPlaceDetails?id=31429,http://tour-pedia.org/api/getReviewsByPlaceId?placeId=31429
,poi,31440,52.419333865823,4.8271781150879,Amsterdam,hempond,500c6f06e4b043efbf01c24c,0,"Boat or Ferry",http://tour-pedia.org/api/getPlaceDetails?id=31440,http://tour-pedia.org/api/getReviewsByPlaceId?placeId=31440
"Hemweg 177",poi,31442,52.417965531349,4.8262917995453,Amsterdam,"Bushalte Hempontplein",4d5413cc3d7354812fab4352,0,"Bus Line",http://tour-pedia.org/api/getPlaceDetails?id=31442,http://tour-pedia.org/api/getReviewsByPlaceId?placeId=31442
Hemkade,poi,31443,52.418915118475,4.8266004203883,Amsterdam,"Rijkspont 6",4f7d5551e4b062316ab8ace4,0,"Boat or Ferry",http://tour-pedia.org/api/getPlaceDetails?id=31443,http://tour-pedia.org/api/getReviewsByPlaceId?placeId=31443
"Hemkade Zaandam",poi,31444,52.41828380356,4.8267332668594,Amsterdam,"Rijkspont 7 Zaandam",4f84b476e4b07bb512cfca60,0,"Boat or Ferry",http://tour-pedia.org/api/getPlaceDetails?id=31444,http://tour-pedia.org/api/getReviewsByPlaceId?placeId=31444
,poi,31445,52.417938709259,4.8270374536514,Amsterdam,"Fietspad Nieuwe Hemweg",4e1becf262e11cdc743dc853,0,Road,http://tour-pedia.org/api/getPlaceDetails?id=31445,http://tour-pedia.org/api/getReviewsByPlaceId?placeId=31445
,poi,31446,52.411182778703,4.8282814466181,Amsterdam,"Infra Spoor 5/6/7",50a4cdf9e4b0566fc7dc5830,0,Platform,http://tour-pedia.org/api/getPlaceDetails?id=31446,http://tour-pedia.org/api/getReviewsByPlaceId?placeId=31446
,poi,31447,52.40582255273,4.8269462585449,Amsterdam,Sonthaven,4d6e21892e6ea093a7fe1850,0,"Boat or Ferry",http://tour-pedia.org/api/getPlaceDetails?id=31447,http://tour-pedia.org/api/getReviewsByPlaceId?placeId=31447
,poi,31448,52.39323150562,4.8256625247235,Amsterdam,Basisweg,4c20c711132f0f470d2ea796,0,Road,http://tour-pedia.org/api/getPlaceDetails?id=31448,http://tour-pedia.org/api/getReviewsByPlaceId?placeId=31448
,poi,31449,52.391242980957,4.824227809906,Amsterdam,"Ouke Baas Autoverhuur",527e1860498e631072d009c9,0,"Rental Car Location",http://tour-pedia.org/api/getPlaceDetails?id=31449,http://tour-pedia.org/api/getReviewsByPlaceId?placeId=31449
Slotermeerlaan,poi,31451,52.381257812716,4.8213243484497,Amsterdam,"Tram- en Bushalte Plein '40-'45",4bcb1f52937ca593c2dea892,0,"Bus Station",http://tour-pedia.org/api/getPlaceDetails?id=31451,http://tour-pedia.org/api/getReviewsByPlaceId?placeId=31451
,poi,31452,52.39043,4.81923,Amsterdam,"Lijn 231 naar Sloterdijk",50d0a28a498e3f64ce49ff63,0,"Bus Line",http://tour-pedia.org/api/getPlaceDetails?id=31452,http://tour-pedia.org/api/getReviewsByPlaceId?placeId=31452
,poi,31453,52.384412167737,4.8186805352559,Amsterdam,"NS-bus: Amsterdam Sloterdijk - Haarlem",4eb5a2a7b8030fb582f651be,0,"Bus Line",http://tour-pedia.org/api/getPlaceDetails?id=31453,http://tour-pedia.org/api/getReviewsByPlaceId?placeId=31453
,poi,31454,52.39043,4.81923,Amsterdam,"Bushalte oderweg",50d0a23be4b07590cfdbcbf4,0,"Bus Station",http://tour-pedia.org/api/getPlaceDetails?id=31454,http://tour-pedia.org/api/getReviewsByPlaceId?placeId=31454
,poi,31455,52.39043,4.81923,Amsterdam,"Bushalte oderweg",50d0a0fce4b00bede4300acc,0,"Bus Station",http://tour-pedia.org/api/getPlaceDetails?id=31455,http://tour-pedia.org/api/getReviewsByPlaceId?placeId=31455
,poi,31456,52.3897961,4.8213808,Amsterdam,"Trein naar Wormerveer.",4e54d860483b764fba25cbd9,0,Train,http://tour-pedia.org/api/getPlaceDetails?id=31456,http://tour-pedia.org/api/getReviewsByPlaceId?placeId=31456
,poi,31457,52.386184692383,4.8183755874634,Amsterdam,"trein hoorn kersenboogerd - amsterdam centraal",4f4b580fe4b076e6e2959fc5,0,Train,http://tour-pedia.org/api/getPlaceDetails?id=31457,http://tour-pedia.org/api/getReviewsByPlaceId?placeId=31457
,poi,31458,52.384681517629,4.8194755525195,Amsterdam,"Bus 179 naar zwanenburg",4e733890a8095a7c422e5137,0,"Bus Line",http://tour-pedia.org/api/getPlaceDetails?id=31458,http://tour-pedia.org/api/getReviewsByPlaceId?placeId=31458
,poi,31462,52.380395008698,4.8275932167235,Amsterdam,"Burgemeester De Vlugtlaan",4f2befd0e4b0ebf4288daa25,0,Road,http://tour-pedia.org/api/getPlaceDetails?id=31462,http://tour-pedia.org/api/getReviewsByPlaceId?placeId=31462
,poi,31463,52.380360401657,4.8282434115075,Amsterdam,"bus 21 cs",4e2860aa2271752a4593e34a,0,"Bus Line",http://tour-pedia.org/api/getPlaceDetails?id=31463,http://tour-pedia.org/api/getReviewsByPlaceId?placeId=31463
"Joop van Weezelhof 35",poi,31464,52.380672,4.823972,Amsterdam,"D-Reizen '40-'45",4bc72b478b7c9c7461e235cf,0,"General Travel",http://tour-pedia.org/api/getPlaceDetails?id=31464,http://tour-pedia.org/api/getReviewsByPlaceId?placeId=31464
,poi,31465,52.380452156067,4.8251760005951,Amsterdam,"Birrie's Bike",4db70f656a23c31a034c129c,0,"General Travel",http://tour-pedia.org/api/getPlaceDetails?id=31465,http://tour-pedia.org/api/getReviewsByPlaceId?placeId=31465
,poi,31466,52.380702905937,4.8259230949677,Amsterdam,"Buslijn 80 naar Haarlem",506314f8e4b0d0784071074f,0,"Bus Line",http://tour-pedia.org/api/getPlaceDetails?id=31466,http://tour-pedia.org/api/getReviewsByPlaceId?placeId=31466
"Lodewijk van Deysselstraat",poi,31468,52.379843221682,4.8180949687958,Amsterdam,"Tramhalte Lod. v. Deysselstraat",50410629067dab59d7256976,0,"Light Rail",http://tour-pedia.org/api/getPlaceDetails?id=31468,http://tour-pedia.org/api/getReviewsByPlaceId?placeId=31468
,poi,31469,52.372967,4.823509,Amsterdam,"""de Pelikaan""",4c6165c7832fa59397eff1d3,0,"Boat or Ferry",http://tour-pedia.org/api/getPlaceDetails?id=31469,http://tour-pedia.org/api/getReviewsByPlaceId?placeId=31469
"Jan Cupidohof 1-III",poi,31470,52.374053404613,4.8239421844482,Amsterdam,"Budget schiphol Taxi",4f5924271081331ae14f1b39,0,Taxi,http://tour-pedia.org/api/getPlaceDetails?id=31470,http://tour-pedia.org/api/getReviewsByPlaceId?placeId=31470
,poi,31471,52.35718,4.813015,Amsterdam,Tjoekie,4d5979193281b1f79d93bb2f,0,Road,http://tour-pedia.org/api/getPlaceDetails?id=31471,http://tour-pedia.org/api/getReviewsByPlaceId?placeId=31471
,poi,31472,52.366683,4.827764,Amsterdam,"Bushalte Hermitagelaan",51d2615b498ef79e8fa0a2c2,0,"Bus Line",http://tour-pedia.org/api/getPlaceDetails?id=31472,http://tour-pedia.org/api/getReviewsByPlaceId?placeId=31472
,poi,31473,52.359809875488,4.8253717422485,Amsterdam,"emmanuel van meterenatraat",504bc37ae4b03e711f5c62cb,0,Road,http://tour-pedia.org/api/getPlaceDetails?id=31473,http://tour-pedia.org/api/getReviewsByPlaceId?placeId=31473
,poi,31474,52.359259508221,4.8253601515315,Amsterdam,"Op de rotonde",4f61b299e4b0bedb2a3c2b04,0,Road,http://tour-pedia.org/api/getPlaceDetails?id=31474,http://tour-pedia.org/api/getReviewsByPlaceId?placeId=31474
,poi,31475,52.354161,4.81226,Amsterdam,"Flight Garuda 89 To Jakarta",4cf77627d3a8a1cd59e3d643,0,Plane,http://tour-pedia.org/api/getPlaceDetails?id=31475,http://tour-pedia.org/api/getReviewsByPlaceId?placeId=31475
,poi,31476,52.357826,4.82612,Amsterdam,"Tramhalte Johan Huizingalaan",4f610cdde4b0e571a31d68bc,0,"Light Rail",http://tour-pedia.org/api/getPlaceDetails?id=31476,http://tour-pedia.org/api/getReviewsByPlaceId?placeId=31476
,poi,31477,52.356309,4.824753,Amsterdam,"Fietsen langs esso",4f61b271e4b06b1a17d7bc05,0,Road,http://tour-pedia.org/api/getPlaceDetails?id=31477,http://tour-pedia.org/api/getReviewsByPlaceId?placeId=31477
"Moving Target!",poi,31478,52.346272688256,4.823169708252,Amsterdam,"Bus 18 Slotervaart - Centraal Station",4b728ce0f964a5201d7e2de3,0,"Bus Line",http://tour-pedia.org/api/getPlaceDetails?id=31478,http://tour-pedia.org/api/getReviewsByPlaceId?placeId=31478
,poi,31479,52.348717,4.827642,Amsterdam,"Slotervaartziekenhuis BV parkeerplaats Expeditie",4dd0bc3245ddbe15f8c08c5e,0,Road,http://tour-pedia.org/api/getPlaceDetails?id=31479,http://tour-pedia.org/api/getReviewsByPlaceId?placeId=31479
,poi,31480,52.348942415836,4.8274762726696,Amsterdam,"Johan huizingalaan halte bus 398 & tram 2",4f5f387ce4b0a7555b2e15f3,0,"Bus Station",http://tour-pedia.org/api/getPlaceDetails?id=31480,http://tour-pedia.org/api/getReviewsByPlaceId?placeId=31480
,poi,31481,52.346742,4.824357,Amsterdam,"Bus 247 naar Schiphol",4f56e561e4b01d8a929ffa6c,0,"Bus Line",http://tour-pedia.org/api/getPlaceDetails?id=31481,http://tour-pedia.org/api/getReviewsByPlaceId?placeId=31481
,poi,31482,52.349767684937,4.8274773359299,Amsterdam,"Tramhalte - Johan Huizingalaan",4cf7a4ca81cd6dcb49b0820d,0,"Light Rail",http://tour-pedia.org/api/getPlaceDetails?id=31482,http://tour-pedia.org/api/getReviewsByPlaceId?placeId=31482
,poi,31484,52.342646653612,4.8285903450017,Amsterdam,"Rieker Circle Line",4d122ac41f95236a7d033c06,0,"Bus Line",http://tour-pedia.org/api/getPlaceDetails?id=31484,http://tour-pedia.org/api/getReviewsByPlaceId?placeId=31484
,poi,31485,52.344334932465,4.8271702012419,Amsterdam,"Duke Ellingtonstraat",4e158ca08877cd57120e8b41,0,Road,http://tour-pedia.org/api/getPlaceDetails?id=31485,http://tour-pedia.org/api/getReviewsByPlaceId?placeId=31485
"on the way",poi,31486,52.338395717779,4.8202987361776,Amsterdam,"Train To Nijmegen",4e102645c65b4a49f301b539,0,Train,http://tour-pedia.org/api/getPlaceDetails?id=31486,http://tour-pedia.org/api/getReviewsByPlaceId?placeId=31486
,poi,31487,52.34072658699,4.8274129629135,Amsterdam,"Bus Halte Slotervaart IBM",4c5c3bb585a1e21e42035611,0,"Bus Line",http://tour-pedia.org/api/getPlaceDetails?id=31487,http://tour-pedia.org/api/getReviewsByPlaceId?placeId=31487
,poi,31488,52.338577270508,4.8276696205139,Amsterdam,"train 9352 from Amsterdam Central to  Paris Nord",518796c2498ea191ba05a626,0,"Moving Target",http://tour-pedia.org/api/getPlaceDetails?id=31488,http://tour-pedia.org/api/getReviewsByPlaceId?placeId=31488
Sloterweg,poi,31490,52.341958772593,4.8250611263741,Amsterdam,"Bus 145",4f71901de4b0125a70ffd869,0,"Bus Line",http://tour-pedia.org/api/getPlaceDetails?id=31490,http://tour-pedia.org/api/getReviewsByPlaceId?placeId=31490
Sloterweg,poi,31491,52.344148362584,4.8256573153674,Amsterdam,"Bushalte L. Armstrongstraat",4d3174316c7c721eb305a656,0,"Bus Station",http://tour-pedia.org/api/getPlaceDetails?id=31491,http://tour-pedia.org/api/getReviewsByPlaceId?placeId=31491
,poi,31493,52.341757260367,4.8210332019035,Amsterdam,"Peugeot 508",5048d1b3e4b0fbb31216df22,0,"Moving Target",http://tour-pedia.org/api/getPlaceDetails?id=31493,http://tour-pedia.org/api/getReviewsByPlaceId?placeId=31493
,poi,31494,52.338383292758,4.8199344075406,Amsterdam,"Trein Schiphol - Leiden",5106a5ace4b0967f87d1a543,0,Train,http://tour-pedia.org/api/getPlaceDetails?id=31494,http://tour-pedia.org/api/getReviewsByPlaceId?placeId=31494
,poi,31495,52.338614898922,4.8247374517897,Amsterdam,"Sprinter Hoorn Kersenboogerd",4cc0608d575d236a6f3fc48e,0,Train,http://tour-pedia.org/api/getPlaceDetails?id=31495,http://tour-pedia.org/api/getReviewsByPlaceId?placeId=31495
,poi,31496,52.340256155936,4.8279531684123,Amsterdam,"Bushalte Riekerpolder",510f9fc9e4b0aaab97e2bf3d,0,"Bus Station",http://tour-pedia.org/api/getPlaceDetails?id=31496,http://tour-pedia.org/api/getReviewsByPlaceId?placeId=31496
,poi,31497,52.338482767512,4.8258508144151,Amsterdam,"Sprinter Schiphol - Almere Oostvaarders",4ee0a5b0b6343c6ff71f7d4c,0,Train,http://tour-pedia.org/api/getPlaceDetails?id=31497,http://tour-pedia.org/api/getReviewsByPlaceId?placeId=31497
,poi,31498,52.341659436713,4.8250113019714,Amsterdam,Автобус,4f6ec0eae4b0ac4cdb8c3f25,0,"Bus Line",http://tour-pedia.org/api/getPlaceDetails?id=31498,http://tour-pedia.org/api/getReviewsByPlaceId?placeId=31498
,poi,31499,52.338361579157,4.8261403009573,Amsterdam,"16:37 Apeldoorn",521cba9f11d2176c870e3160,0,Train,http://tour-pedia.org/api/getPlaceDetails?id=31499,http://tour-pedia.org/api/getReviewsByPlaceId?placeId=31499
,poi,31500,52.338875025623,4.8278866073931,Amsterdam,"A4 richting Rotterdam",4e8f1f6d93ad4cf950585647,0,Road,http://tour-pedia.org/api/getPlaceDetails?id=31500,http://tour-pedia.org/api/getReviewsByPlaceId?placeId=31500
,poi,31501,52.338809967041,4.8221130371094,Amsterdam,"paulus mini car",513a37cee4b09469032ee911,0,"Moving Target",http://tour-pedia.org/api/getPlaceDetails?id=31501,http://tour-pedia.org/api/getReviewsByPlaceId?placeId=31501
,poi,31502,52.408131712641,4.8314746964627,Amsterdam,"Rangeerterrein Westhaven",4f7593fce4b0eeae72882a6b,0,Platform,http://tour-pedia.org/api/getPlaceDetails?id=31502,http://tour-pedia.org/api/getReviewsByPlaceId?placeId=31502
,poi,31503,52.40850929722,4.8288828160074,Amsterdam,"Infra Spoor 1/2",50a4de6d498ebaf9616a74fe,0,Platform,http://tour-pedia.org/api/getPlaceDetails?id=31503,http://tour-pedia.org/api/getReviewsByPlaceId?placeId=31503
,poi,31504,52.397218821214,4.8330673317589,Amsterdam,"VCK Travel",4d21b6188629224bf54e1d87,0,"General Travel",http://tour-pedia.org/api/getPlaceDetails?id=31504,http://tour-pedia.org/api/getReviewsByPlaceId?placeId=31504
,poi,31505,52.397656680015,4.8349172026628,Amsterdam,"Sevenstar Yacht Transport",4fb25224e4b03516ff53b135,0,"Boat or Ferry",http://tour-pedia.org/api/getPlaceDetails?id=31505,http://tour-pedia.org/api/getReviewsByPlaceId?placeId=31505
,poi,31506,52.39254946758,4.8303718011461,Amsterdam,"Op de grond van de trein naar Den Haag",4da5b88a93a01f42facc2fdc,0,Train,http://tour-pedia.org/api/getPlaceDetails?id=31506,http://tour-pedia.org/api/getReviewsByPlaceId?placeId=31506
,poi,31508,52.3913,4.83347,Amsterdam,"Trein amsterdam sloterdijk naar krommenie",4f914b16e4b023d6c6ddd532,0,"Moving Target",http://tour-pedia.org/api/getPlaceDetails?id=31508,http://tour-pedia.org/api/getReviewsByPlaceId?placeId=31508
,poi,31509,52.388770968248,4.8336059861626,Amsterdam,"Trein Amsterdam - Zandvoort",4eddcc9961af8a14ba582870,0,Train,http://tour-pedia.org/api/getPlaceDetails?id=31509,http://tour-pedia.org/api/getReviewsByPlaceId?placeId=31509
,poi,31510,52.388818100275,4.8297260963157,Amsterdam,"Train to Den Haag",5077aed0e4b00eb86031afe1,0,Train,http://tour-pedia.org/api/getPlaceDetails?id=31510,http://tour-pedia.org/api/getReviewsByPlaceId?placeId=31510
,poi,31511,52.388500213623,4.8327660560608,Amsterdam,"Intercity Amsterdam Sloterdijk - Delft",4f71dba8e4b0741eb4b3db05,0,"Moving Target",http://tour-pedia.org/api/getPlaceDetails?id=31511,http://tour-pedia.org/api/getReviewsByPlaceId?placeId=31511
,poi,31512,52.389934539795,4.8326115608215,Amsterdam,"Sprinter uitgeest rotterdam",50e5ad25e4b0c88a55b9e7ef,0,Train,http://tour-pedia.org/api/getPlaceDetails?id=31512,http://tour-pedia.org/api/getReviewsByPlaceId?placeId=31512
"Basisweg 60",poi,31513,52.392835193897,4.833341230389,Amsterdam,Westrandweg,4cecc211b80da09377461e00,0,Road,http://tour-pedia.org/api/getPlaceDetails?id=31513,http://tour-pedia.org/api/getReviewsByPlaceId?placeId=31513
,poi,31514,52.391604,4.833787,Amsterdam,Transformatorweg,4cd98fb33ec4b1f7455bc43f,0,Road,http://tour-pedia.org/api/getPlaceDetails?id=31514,http://tour-pedia.org/api/getReviewsByPlaceId?placeId=31514
,poi,31515,52.391871642584,4.8340412812921,Amsterdam,"Pendelbus Dancevalley",4c5d5a05857ca5936586cccb,0,"Boat or Ferry",http://tour-pedia.org/api/getPlaceDetails?id=31515,http://tour-pedia.org/api/getReviewsByPlaceId?placeId=31515
,poi,31516,52.385383605957,4.8324499130249,Amsterdam,"fietsenstalling SLOTERDIJK",51c70d58498e5c7bffbc8947,0,"Bike Rental / Bike Share",http://tour-pedia.org/api/getPlaceDetails?id=31516,http://tour-pedia.org/api/getReviewsByPlaceId?placeId=31516
,poi,31517,52.386956851491,4.8328527140028,Amsterdam,"NS bus naar Haarlem",4fd47d41e4b02bbdc605ead5,0,"Bus Line",http://tour-pedia.org/api/getPlaceDetails?id=31517,http://tour-pedia.org/api/getReviewsByPlaceId?placeId=31517
,poi,31518,52.39281585251,4.8344385204439,Amsterdam,"Pendelbus Awakenings",51cecd27498e48b06bddff0e,0,"Bus Line",http://tour-pedia.org/api/getPlaceDetails?id=31518,http://tour-pedia.org/api/getReviewsByPlaceId?placeId=31518
Schiphol,poi,31519,52.387624,4.834231,Amsterdam,"Sprinter Hoorn Kersenbooger",4cbc5652f50e224bee8efefb,0,Train,http://tour-pedia.org/api/getPlaceDetails?id=31519,http://tour-pedia.org/api/getReviewsByPlaceId?placeId=31519
,poi,31520,52.39048,4.83539,Amsterdam,"Trein Amsterdam Sloterdijk richting Vlissingen",4f97fe08e4b08ae4a05ea46e,0,Train,http://tour-pedia.org/api/getPlaceDetails?id=31520,http://tour-pedia.org/api/getReviewsByPlaceId?placeId=31520
,poi,31521,52.389106750488,4.8351922035217,Amsterdam,"Intercity Sloterdijk naar Schothorst",50228ab0e4b0c71833e5790d,0,"Moving Target",http://tour-pedia.org/api/getPlaceDetails?id=31521,http://tour-pedia.org/api/getReviewsByPlaceId?placeId=31521
,poi,31523,52.379866,4.831034,Amsterdam,"Aic Auto",4fae0b59e4b03d5226ddb1db,0,"Moving Target",http://tour-pedia.org/api/getPlaceDetails?id=31523,http://tour-pedia.org/api/getReviewsByPlaceId?placeId=31523
,poi,31524,52.378733220136,4.8330031722984,Amsterdam,"Reina Prinsen Geerlingsstraat",4dafbdd2fa8c123fa7f61f29,0,Road,http://tour-pedia.org/api/getPlaceDetails?id=31524,http://tour-pedia.org/api/getReviewsByPlaceId?placeId=31524
,poi,31525,52.375105,4.83612,Amsterdam,"Train To centraal Statoon",525988f1498e80ed538929d0,0,Train,http://tour-pedia.org/api/getPlaceDetails?id=31525,http://tour-pedia.org/api/getReviewsByPlaceId?placeId=31525
,poi,31526,52.376430977781,4.8334900419331,Amsterdam,Slotermeerschutsluis,4fc21afae4b008d93b0266ff,0,Pier,http://tour-pedia.org/api/getPlaceDetails?id=31526,http://tour-pedia.org/api/getReviewsByPlaceId?placeId=31526
,poi,31527,52.376453059903,4.8356988936418,Amsterdam,"Intercity Amsterdam-Leiden",4bfb776ad0382d7f51bac90a,0,Train,http://tour-pedia.org/api/getPlaceDetails?id=31527,http://tour-pedia.org/api/getReviewsByPlaceId?placeId=31527
,poi,31528,52.380527380048,4.8344281988081,Amsterdam,"Trein Van Hoorn naar Schiphol",4e65ce46ae60e9edf72ae693,0,Train,http://tour-pedia.org/api/getPlaceDetails?id=31528,http://tour-pedia.org/api/getReviewsByPlaceId?placeId=31528
,poi,31529,52.3758279,4.83310183,Amsterdam,"Tramhalte Geuzenveld",4c534330479fc928bcbe2e91,0,"Light Rail",http://tour-pedia.org/api/getPlaceDetails?id=31529,http://tour-pedia.org/api/getReviewsByPlaceId?placeId=31529
,poi,31530,52.376140594482,4.8362712860107,Amsterdam,"sprinter Amsterdam-Leiden",51a8b64b498ef673ec415618,0,"Moving Target",http://tour-pedia.org/api/getPlaceDetails?id=31530,http://tour-pedia.org/api/getReviewsByPlaceId?placeId=31530
,poi,31533,52.372898,4.835206,Amsterdam,"Train To Schiphol",520366ed498e3cff747fbf17,0,"Moving Target",http://tour-pedia.org/api/getPlaceDetails?id=31533,http://tour-pedia.org/api/getReviewsByPlaceId?placeId=31533
"Marcellus Emantsstraat",poi,31535,52.374990044134,4.8266887664795,Amsterdam,Schumi,4f7a7881e4b02579033682ce,0,"Moving Target",http://tour-pedia.org/api/getPlaceDetails?id=31535,http://tour-pedia.org/api/getReviewsByPlaceId?placeId=31535
,poi,31536,52.380390266667,4.8252532833333,Amsterdam,"Manu's Car",4e44eb7ac65b82109470c72b,0,"General Travel",http://tour-pedia.org/api/getPlaceDetails?id=31536,http://tour-pedia.org/api/getReviewsByPlaceId?placeId=31536
,poi,31537,52.3805524,4.82517435,Amsterdam,"Annie Aygo",4d1d8be2bdd7a093cf1ed5ce,0,Road,http://tour-pedia.org/api/getPlaceDetails?id=31537,http://tour-pedia.org/api/getReviewsByPlaceId?placeId=31537
"Burgermeester Hogguerstraat",poi,31538,52.372690984395,4.8300576210022,Amsterdam,"Burgermeester Hogguerstraat",4c97a57272dd224b665fb691,0,Road,http://tour-pedia.org/api/getPlaceDetails?id=31538,http://tour-pedia.org/api/getReviewsByPlaceId?placeId=31538
,poi,31539,52.371904819676,4.830157105907,Amsterdam,"Burgemeester Hogguerstraat",4dde161ab0fbc2c4eefab267,0,Road,http://tour-pedia.org/api/getPlaceDetails?id=31539,http://tour-pedia.org/api/getReviewsByPlaceId?placeId=31539
,poi,31540,52.375154,4.83315,Amsterdam,"My Car Renault Clio",4ddf4a48d4c0935ddd593e17,0,Road,http://tour-pedia.org/api/getPlaceDetails?id=31540,http://tour-pedia.org/api/getReviewsByPlaceId?placeId=31540
,poi,31542,52.373737,4.834821,Amsterdam,"My Mazda Fiesta",4de2a7c88877bcb6864a1e99,0,Taxi,http://tour-pedia.org/api/getPlaceDetails?id=31542,http://tour-pedia.org/api/getReviewsByPlaceId?placeId=31542
31543,"Postjesweg, Amsterdam",Netherlands,poi,Amsterdam,52.36468,4.833855,http://tour-pedia.org/api/getPlaceDetails?id=31543,http://tour-pedia.org/api/getReviewsByPlaceId?placeId=31543
,poi,31544,52.369327545166,4.8338451385498,Amsterdam,"Tramhalte Jan Voermanstraat",4e64ed377d8b85408ab764bc,0,"Light Rail",http://tour-pedia.org/api/getPlaceDetails?id=31544,http://tour-pedia.org/api/getReviewsByPlaceId?placeId=31544
Huizingalaan,poi,31547,52.362212308327,4.8273913839258,Amsterdam,"Parking Slotervaart",4b6fdb0ef964a52005fe2ce3,0,"Bus Station",http://tour-pedia.org/api/getPlaceDetails?id=31547,http://tour-pedia.org/api/getReviewsByPlaceId?placeId=31547
"Robert Fruinlaan",poi,31548,52.364043,4.83016375,Amsterdam,"Bushalte Lijn 18 Robert Fruinlaan",4beb0a0bb3352d7f9ff455d2,0,"Bus Line",http://tour-pedia.org/api/getPlaceDetails?id=31548,http://tour-pedia.org/api/getReviewsByPlaceId?placeId=31548
Postjesweg,poi,31549,52.364764,4.834051,Amsterdam,"tramhalte 17 witte de with",4b968ce2f964a520f5d334e3,0,"Light Rail",http://tour-pedia.org/api/getPlaceDetails?id=31549,http://tour-pedia.org/api/getReviewsByPlaceId?placeId=31549
,poi,31550,52.364463,4.830432,Amsterdam,"Karl's Bike",504d99ace4b0d1cf34988b7d,0,"Bike Rental / Bike Share",http://tour-pedia.org/api/getPlaceDetails?id=31550,http://tour-pedia.org/api/getReviewsByPlaceId?placeId=31550
,poi,31551,52.364600557935,4.8337485380221,Amsterdam,"Sprinter Schiphol - Amsterdam Muiderpoort",510001e9e4b0595005e0b586,0,Train,http://tour-pedia.org/api/getPlaceDetails?id=31551,http://tour-pedia.org/api/getReviewsByPlaceId?placeId=31551
,poi,31552,52.357561,4.820175,Amsterdam,"Bikeriding In Amsterdam",4dd2645252b15d0acc7c6802,0,"General Travel",http://tour-pedia.org/api/getPlaceDetails?id=31552,http://tour-pedia.org/api/getReviewsByPlaceId?placeId=31552
,poi,31553,52.371700286865,4.83536195755,Amsterdam,"Station postjesweg.",506c4608e4b04f6e05763b23,0,Subway,http://tour-pedia.org/api/getPlaceDetails?id=31553,http://tour-pedia.org/api/getReviewsByPlaceId?placeId=31553
31554,"Amsterdam, Station Lelylaan",Netherlands,poi,Amsterdam,52.357904,4.833823,http://tour-pedia.org/api/getPlaceDetails?id=31554,http://tour-pedia.org/api/getReviewsByPlaceId?placeId=31554
31555,"Amsterdam, Station Lelylaan",Netherlands,poi,Amsterdam,52.35788,4.834601,http://tour-pedia.org/api/getPlaceDetails?id=31555,http://tour-pedia.org/api/getReviewsByPlaceId?placeId=31555
,poi,31556,52.357449531555,4.833933,Amsterdam,"Train to Hoofddorp",4c9c4fb57c096dcbd893c0d1,0,"Light Rail",http://tour-pedia.org/api/getPlaceDetails?id=31556,http://tour-pedia.org/api/getReviewsByPlaceId?placeId=31556
"Station Lelylaan",poi,31557,52.357628584573,4.8339521862524,Amsterdam,"spoor 1",51075c65e4b0d4a05d6c2ae9,0,Platform,http://tour-pedia.org/api/getPlaceDetails?id=31557,http://tour-pedia.org/api/getReviewsByPlaceId?placeId=31557
"Johan huizingalaan",poi,31558,52.356365,4.8276789702438,Amsterdam,"Johan Huizingalaan",4dc12cb5d4c07bbdf76e425f,0,Road,http://tour-pedia.org/api/getPlaceDetails?id=31558,http://tour-pedia.org/api/getReviewsByPlaceId?placeId=31558
,poi,31562,52.357295,4.833957,Amsterdam,"Intercity Sloterdijk - Den Haag",4f41e943e4b0085fef0e67d1,0,"Moving Target",http://tour-pedia.org/api/getPlaceDetails?id=31562,http://tour-pedia.org/api/getReviewsByPlaceId?placeId=31562
"Station Lelylaan",poi,31563,52.35751278,4.834119,Amsterdam,"Spoor 2",4e1ac6a5183880768f57d5ba,0,Platform,http://tour-pedia.org/api/getPlaceDetails?id=31563,http://tour-pedia.org/api/getReviewsByPlaceId?placeId=31563
,poi,31564,52.355719462955,4.8264517253695,Amsterdam,"Van ollefenstraat",4fe81adfe4b08674cb043fc7,0,Road,http://tour-pedia.org/api/getPlaceDetails?id=31564,http://tour-pedia.org/api/getReviewsByPlaceId?placeId=31564
,poi,31565,52.355183008529,4.8273423193166,Amsterdam,"bus 195",4fa15aa1e4b0f2a7755742e9,0,"Bus Line",http://tour-pedia.org/api/getPlaceDetails?id=31565,http://tour-pedia.org/api/getReviewsByPlaceId?placeId=31565
"Moving Target!",poi,31567,52.357634809012,4.8340137313569,Amsterdam,"Sprinter Sloterdijk - Hoofddorp",4e12ce63fa769d21e9f8f730,0,Train,http://tour-pedia.org/api/getPlaceDetails?id=31567,http://tour-pedia.org/api/getReviewsByPlaceId?placeId=31567
,poi,31568,52.356716156006,4.8346400260925,Amsterdam,"GVB Bus 64",514aaa5ee4b07cc40c2dde21,0,"Moving Target",http://tour-pedia.org/api/getPlaceDetails?id=31568,http://tour-pedia.org/api/getReviewsByPlaceId?placeId=31568
,poi,31569,52.358641,4.833794,Amsterdam,"My Way To The Hotel",515aedf3e4b008c4e23b3451,0,Road,http://tour-pedia.org/api/getPlaceDetails?id=31569,http://tour-pedia.org/api/getReviewsByPlaceId?placeId=31569
,poi,31570,52.357749040342,4.8340027779466,Amsterdam,"Trein van station Lelylaan naar Leiden Centraal",4e5b3d6c1495a89112961a15,0,Train,http://tour-pedia.org/api/getPlaceDetails?id=31570,http://tour-pedia.org/api/getReviewsByPlaceId?placeId=31570
,poi,31571,52.357066,4.833715,Amsterdam,"P&R LelylaanLelylaan",4fbfa15de4b07a4edcc839eb,0,"Rest Area",http://tour-pedia.org/api/getPlaceDetails?id=31571,http://tour-pedia.org/api/getReviewsByPlaceId?placeId=31571
,poi,31572,52.356932679339,4.8339319649691,Amsterdam,"Intercity Amsterdam-Rotterdam",4d77365abc888cfaf336e673,0,Train,http://tour-pedia.org/api/getPlaceDetails?id=31572,http://tour-pedia.org/api/getReviewsByPlaceId?placeId=31572
,poi,31573,52.357784,4.834004,Amsterdam,"Trein naar Hoofddorp",4fdc8d87e4b0f18e7740d3e8,0,Train,http://tour-pedia.org/api/getPlaceDetails?id=31573,http://tour-pedia.org/api/getReviewsByPlaceId?placeId=31573
"Moving Target!",poi,31574,52.35729588519,4.8341487625129,Amsterdam,"Sprinter Leylaan - Hoorn Kersenboogerd",4bc6fde36501c9b6618f3d29,0,Train,http://tour-pedia.org/api/getPlaceDetails?id=31574,http://tour-pedia.org/api/getReviewsByPlaceId?placeId=31574
,poi,31575,52.35697555542,4.8343563079834,Amsterdam,"Treistel  7506",4fe7164ee4b00ca0d05fc686,0,Subway,http://tour-pedia.org/api/getPlaceDetails?id=31575,http://tour-pedia.org/api/getReviewsByPlaceId?placeId=31575
,poi,31576,52.356236952827,4.835482942534,Amsterdam,"Schipluidenlaan, Amsterdam",4e82295cb803653af2c056ce,0,Road,http://tour-pedia.org/api/getPlaceDetails?id=31576,http://tour-pedia.org/api/getReviewsByPlaceId?placeId=31576
"otto heldringstraat",poi,31580,52.346990178278,4.8330590897626,Amsterdam,"bushalte otto heldringstraat",4fb3b44ee4b03193b70a04ff,0,"Bus Line",http://tour-pedia.org/api/getPlaceDetails?id=31580,http://tour-pedia.org/api/getReviewsByPlaceId?placeId=31580
,poi,31581,52.346990226212,4.8276174716131,Amsterdam,"bushalte aletta jacobsstraat",4fb3b5a1e4b0d0b77c1a0f01,0,"Bus Line",http://tour-pedia.org/api/getPlaceDetails?id=31581,http://tour-pedia.org/api/getReviewsByPlaceId?placeId=31581
Leidseplein,poi,31582,52.346931336386,4.8287553244384,Amsterdam,"Bus 145",4c0a56cb009a0f475829e9bf,0,"Bus Line",http://tour-pedia.org/api/getPlaceDetails?id=31582,http://tour-pedia.org/api/getReviewsByPlaceId?placeId=31582
,poi,31583,52.349248730739,4.8341273526864,Amsterdam,Fyria,4dd14fceb0fb25f6e3883a7b,0,Train,http://tour-pedia.org/api/getPlaceDetails?id=31583,http://tour-pedia.org/api/getReviewsByPlaceId?placeId=31583
"Johan Huizingalaan",poi,31584,52.346798167673,4.8279980228357,Amsterdam,"Johan Huizingalaan Amsterdam",4d83c9409324236a2707ac0e,0,"Bus Station",http://tour-pedia.org/api/getPlaceDetails?id=31584,http://tour-pedia.org/api/getReviewsByPlaceId?placeId=31584
"Moving target!",poi,31585,52.343762,4.827938,Amsterdam,"Buslijn 395 Richting Wormerlan",4d4ad6f1b480a143f5a933ec,0,"Bus Line",http://tour-pedia.org/api/getPlaceDetails?id=31585,http://tour-pedia.org/api/getReviewsByPlaceId?placeId=31585
,poi,31587,52.337624658402,4.8326921999589,Amsterdam,A4,509a7069e4b014d042144068,0,Road,http://tour-pedia.org/api/getPlaceDetails?id=31587,http://tour-pedia.org/api/getReviewsByPlaceId?placeId=31587
Everywhere,poi,31588,52.345947,4.829154,Amsterdam,"Moeders lowriderbike",4d5045309b27721e8f5dac46,0,"General Travel",http://tour-pedia.org/api/getPlaceDetails?id=31588,http://tour-pedia.org/api/getReviewsByPlaceId?placeId=31588
,poi,31589,52.338733043408,4.8342559129191,Amsterdam,"Schipol Smoking Area",4c93a7c972dd224b0dad9291,0,"Airport Food Court",http://tour-pedia.org/api/getPlaceDetails?id=31589,http://tour-pedia.org/api/getReviewsByPlaceId?placeId=31589
,poi,31590,52.339404,4.836075,Amsterdam,"Intercity Trein Amsterdam Den Haag",5086b1b6e4b0496ebbb1d248,0,"Moving Target",http://tour-pedia.org/api/getPlaceDetails?id=31590,http://tour-pedia.org/api/getReviewsByPlaceId?placeId=31590
,poi,31591,52.338573122028,4.834231776564,Amsterdam,"Intercity Schiphol - Brussel-Zuid/Midi",4d1608debb488cfa729ba3d4,0,Train,http://tour-pedia.org/api/getPlaceDetails?id=31591,http://tour-pedia.org/api/getReviewsByPlaceId?placeId=31591
,poi,31592,52.339791975072,4.8337164962231,Amsterdam,"Train Schiphol Amsterdam (AMS) - Hoorn kersenboogerd",4e4ed321b0fb088f3c1337b0,0,Train,http://tour-pedia.org/api/getPlaceDetails?id=31592,http://tour-pedia.org/api/getReviewsByPlaceId?placeId=31592
,poi,31593,52.340716947438,4.8278506763582,Amsterdam,"Bus Line 195",4df2387c1f6e818dadfba170,0,"Bus Line",http://tour-pedia.org/api/getPlaceDetails?id=31593,http://tour-pedia.org/api/getReviewsByPlaceId?placeId=31593
,poi,31594,52.33772277832,4.8305292129517,Amsterdam,"Flight HV345 to Antalya",51ea0c30498ed007e2714d72,0,Plane,http://tour-pedia.org/api/getPlaceDetails?id=31594,http://tour-pedia.org/api/getReviewsByPlaceId?placeId=31594
,poi,31595,52.338225366193,4.8360967187519,Amsterdam,"Trein Schiphol - Utrecht",4fc37f65e4b0f6b4eeb0106d,0,Train,http://tour-pedia.org/api/getPlaceDetails?id=31595,http://tour-pedia.org/api/getReviewsByPlaceId?placeId=31595
,poi,31596,52.404094696045,4.8373794555664,Amsterdam,"Amsterdam westhaven",4f03fca929c2b9a3eda17177,0,Road,http://tour-pedia.org/api/getPlaceDetails?id=31596,http://tour-pedia.org/api/getReviewsByPlaceId?placeId=31596
,poi,31599,52.391391085789,4.8385049346065,Amsterdam,"Orlyplein Ingang Sloterdijk",4e8c5e77775bb280522f5be3,0,"Train Station",http://tour-pedia.org/api/getPlaceDetails?id=31599,http://tour-pedia.org/api/getReviewsByPlaceId?placeId=31599
,poi,31600,52.396427154541,4.837372303009,Amsterdam,"Bjorn's Car",4fa3f184e4b0419374c9208b,0,"Moving Target",http://tour-pedia.org/api/getPlaceDetails?id=31600,http://tour-pedia.org/api/getReviewsByPlaceId?placeId=31600
,poi,31601,52.394531,4.837495,Amsterdam,"Nachttrein Amsterdam Centraal - Leiden",4da8e7f28154abafc2875eaf,0,Train,http://tour-pedia.org/api/getPlaceDetails?id=31601,http://tour-pedia.org/api/getReviewsByPlaceId?placeId=31601
"Donauweg 11",poi,31603,52.393940012728,4.8384300683087,Amsterdam,SternRent,4e685c33d4c0c57090484b46,0,"Rental Car Location",http://tour-pedia.org/api/getPlaceDetails?id=31603,http://tour-pedia.org/api/getReviewsByPlaceId?placeId=31603
31604,"Amsterdam Sloterdijk",Netherlands,poi,Amsterdam,52.389374,4.836779,http://tour-pedia.org/api/getPlaceDetails?id=31604,http://tour-pedia.org/api/getReviewsByPlaceId?placeId=31604
,poi,31608,52.388023305962,4.8388384239515,Amsterdam,"Sloterdijk Carrascoplein",4d907d373bfef04d6917c486,0,"Bus Station",http://tour-pedia.org/api/getPlaceDetails?id=31608,http://tour-pedia.org/api/getReviewsByPlaceId?placeId=31608
"Station Amsterdam Sloterdijk",poi,31610,52.388914306645,4.8375895521606,Amsterdam,"Spoor 7",4c6398fade1b2d7f9746e570,0,Platform,http://tour-pedia.org/api/getPlaceDetails?id=31610,http://tour-pedia.org/api/getReviewsByPlaceId?placeId=31610
"Station Amsterdam Sloterdijk",poi,31611,52.388992735692,4.8377455442608,Amsterdam,"Spoor 5",4da73103ced7e031f7c80b58,0,Platform,http://tour-pedia.org/api/getPlaceDetails?id=31611,http://tour-pedia.org/api/getReviewsByPlaceId?placeId=31611
"Station Amsterdam Sloterdijk",poi,31612,52.389050348883,4.8384261131287,Amsterdam,"Spoor 9",4d50e2649d493704d9cdc639,0,Platform,http://tour-pedia.org/api/getPlaceDetails?id=31612,http://tour-pedia.org/api/getReviewsByPlaceId?placeId=31612
"Station Amsterdam Sloterdijk",poi,31613,52.38876,4.838081,Amsterdam,"Spoor 11",4e1a9520fa76194645a58682,0,Platform,http://tour-pedia.org/api/getPlaceDetails?id=31613,http://tour-pedia.org/api/getReviewsByPlaceId?placeId=31613
"Station Amsterdam Sloterdijk",poi,31615,52.387642,4.836687,Amsterdam,"Spoor 10",4d1d69da2eb1f04db791d6c1,0,Platform,http://tour-pedia.org/api/getPlaceDetails?id=31615,http://tour-pedia.org/api/getReviewsByPlaceId?placeId=31615
"Station Amsterdam Sloterdijk",poi,31616,52.389017028658,4.8379576445913,Amsterdam,"Spoor 6",4c52f7139426c92858fd1376,0,Platform,http://tour-pedia.org/api/getPlaceDetails?id=31616,http://tour-pedia.org/api/getReviewsByPlaceId?placeId=31616
"Station Amsterdam Sloterdijk",poi,31617,52.389101197326,4.8375806254022,Amsterdam,"Spoor 4",4c57ae636201e21e29b82d6f,0,Platform,http://tour-pedia.org/api/getPlaceDetails?id=31617,http://tour-pedia.org/api/getReviewsByPlaceId?placeId=31617
,poi,31618,52.388576858437,4.8402847828147,Amsterdam,"Halte pendelbus ING",4e0ac3e98877a22d3ec7ec1f,0,"Bus Station",http://tour-pedia.org/api/getPlaceDetails?id=31618,http://tour-pedia.org/api/getReviewsByPlaceId?placeId=31618
"Station Amsterdam Sloterdijk",poi,31619,52.388807851474,4.8386544171614,Amsterdam,"Spoor 8",4e1e711062840ee807417ba6,0,Platform,http://tour-pedia.org/api/getPlaceDetails?id=31619,http://tour-pedia.org/api/getReviewsByPlaceId?placeId=31619
,poi,31620,52.387400977701,4.8383547169197,Amsterdam,"Bus 82 naar IJmuiden",4e44c2abd4c02cf15f66b348,0,"Bus Line",http://tour-pedia.org/api/getPlaceDetails?id=31620,http://tour-pedia.org/api/getReviewsByPlaceId?placeId=31620
"Station Amsterdam Sloterdijk",poi,31621,52.389129874374,4.8381041922833,Amsterdam,"Spoor 3",4f733700e4b0601c70bd6889,0,Platform,http://tour-pedia.org/api/getPlaceDetails?id=31621,http://tour-pedia.org/api/getReviewsByPlaceId?placeId=31621
"Station Amsterdam Sloterdijk",poi,31622,52.38869934,4.83815749,Amsterdam,"Spoor 12",4ce0d0f278ddf04d556aa898,0,Platform,http://tour-pedia.org/api/getPlaceDetails?id=31622,http://tour-pedia.org/api/getReviewsByPlaceId?placeId=31622
"Moving Target!",poi,31623,52.389182999068,4.8388561390899,Amsterdam,"Intercity Amsterdam Sloterdijk - Alkmaar",4d792dcac1d56ea88c0ddc2b,0,Train,http://tour-pedia.org/api/getPlaceDetails?id=31623,http://tour-pedia.org/api/getReviewsByPlaceId?placeId=31623
,poi,31624,52.39109668945,4.8412037604557,Amsterdam,A10,4ef05c8e0e01e1fde2518e32,0,Road,http://tour-pedia.org/api/getPlaceDetails?id=31624,http://tour-pedia.org/api/getReviewsByPlaceId?placeId=31624
"Station Amsterdam Sloterdijk",poi,31625,52.388801532853,4.8379325866699,Amsterdam,"Sprinter Amsterdam Sloterdijk - Uitgeest",4cbf14c61c6c6dcb9d626c5e,0,Train,http://tour-pedia.org/api/getPlaceDetails?id=31625,http://tour-pedia.org/api/getReviewsByPlaceId?placeId=31625
"Moving Target!",poi,31626,52.388703800399,4.8384160753879,Amsterdam,"Intercity Amsterdam - Leiden Centraal",4d36b777e4b4a0936f542636,0,Train,http://tour-pedia.org/api/getPlaceDetails?id=31626,http://tour-pedia.org/api/getReviewsByPlaceId?placeId=31626
Radarweg,poi,31627,52.389220982562,4.8369542490605,Amsterdam,"NS-bussen Treinvervangend Vervoer",4d9766ebaf3d236af5c522c7,0,"Train Station",http://tour-pedia.org/api/getPlaceDetails?id=31627,http://tour-pedia.org/api/getReviewsByPlaceId?placeId=31627
,poi,31628,52.389511108398,4.8379530906677,Amsterdam,"trein Amsterdam schiphol",50cb4b28e4b095b9766eb0cd,0,"Moving Target",http://tour-pedia.org/api/getPlaceDetails?id=31628,http://tour-pedia.org/api/getReviewsByPlaceId?placeId=31628
"Moving Target!",poi,31629,52.388008493241,4.8383466963226,Amsterdam,"Bus 69 Sloterdijk - Schiphol Plaza",4f72b542e4b017194ff034ec,0,"Bus Line",http://tour-pedia.org/api/getPlaceDetails?id=31629,http://tour-pedia.org/api/getReviewsByPlaceId?placeId=31629
,poi,31630,52.38841,4.83951,Amsterdam,"Sprinter Amsterdam Sloterdijk-Rhenen",500e291be4b0c1e6fcd4ed52,0,"Light Rail",http://tour-pedia.org/api/getPlaceDetails?id=31630,http://tour-pedia.org/api/getReviewsByPlaceId?placeId=31630
,poi,31631,52.388299650321,4.8382135190788,Amsterdam,"Bus 82 Richting Marnixstraat",4ec5287bf790c16e5241ea7b,0,"Bus Line",http://tour-pedia.org/api/getPlaceDetails?id=31631,http://tour-pedia.org/api/getReviewsByPlaceId?placeId=31631
"Radarweg, Amsterdam",poi,31632,52.387802317754,4.8373688537576,Amsterdam,"Station Amsterdam Sloterdijk - Hemboog (spoor 9/10)",4eb01d1df5b99d24266250bf,0,"Train Station",http://tour-pedia.org/api/getPlaceDetails?id=31632,http://tour-pedia.org/api/getReviewsByPlaceId?placeId=31632
"Moving Target!",poi,31633,52.387727623311,4.838233433495,Amsterdam,"Buslijn 36",4e93e8b246900e559d16779f,0,"Moving Target",http://tour-pedia.org/api/getPlaceDetails?id=31633,http://tour-pedia.org/api/getReviewsByPlaceId?placeId=31633
,poi,31634,52.387460087031,4.83848421844,Amsterdam,"station lelylaan",4fe457d4e4b0b82396ed47d0,0,Train,http://tour-pedia.org/api/getPlaceDetails?id=31634,http://tour-pedia.org/api/getReviewsByPlaceId?placeId=31634
,poi,31635,52.394489,4.841475,Amsterdam,"Trein Amsterdam / Leiden",51df3473498ed122de9b69a7,0,"Moving Target",http://tour-pedia.org/api/getPlaceDetails?id=31635,http://tour-pedia.org/api/getReviewsByPlaceId?placeId=31635
"Moving Target!",poi,31636,52.38772849,4.838749,Amsterdam,"Bus 60 Sloterdijk-Nassaukade",4db285201e7229bb763c9291,0,"Bus Line",http://tour-pedia.org/api/getPlaceDetails?id=31636,http://tour-pedia.org/api/getReviewsByPlaceId?placeId=31636
"Moving Target!",poi,31638,52.388487236917,4.837589263916,Amsterdam,"Intercity Sloterdijk - Lelystad Centrum",4e9710c5722eef174f5f53de,0,Train,http://tour-pedia.org/api/getPlaceDetails?id=31638,http://tour-pedia.org/api/getReviewsByPlaceId?placeId=31638
"Station Sloterdijk",poi,31639,52.389137268066,4.8376569747925,Amsterdam,"Intercity A'dam Sloterdijk - Hilversum",50ebe4b1e4b09da2d3e3f134,0,"Moving Target",http://tour-pedia.org/api/getPlaceDetails?id=31639,http://tour-pedia.org/api/getReviewsByPlaceId?placeId=31639
,poi,31640,52.394651972181,4.8425252427729,Amsterdam,"Amsterdam short Rally",50435abbe4b08d9f598f417f,0,Road,http://tour-pedia.org/api/getPlaceDetails?id=31640,http://tour-pedia.org/api/getReviewsByPlaceId?placeId=31640
"Burgemeester de Vlugtlaan",poi,31641,52.379403522047,4.8381749143217,Amsterdam,"Metrostation De Vlugtlaan",4b24f110f964a520a86a24e3,0,Subway,http://tour-pedia.org/api/getPlaceDetails?id=31641,http://tour-pedia.org/api/getReviewsByPlaceId?placeId=31641
"Rijksweg A10",poi,31642,52.384820285635,4.8444557189941,Amsterdam,"A10 - Afslag S103",4bf7aa354a67c9285d0124cf,0,Road,http://tour-pedia.org/api/getPlaceDetails?id=31642,http://tour-pedia.org/api/getReviewsByPlaceId?placeId=31642
,poi,31644,52.379116507317,4.8381669060478,Amsterdam,"Bushalte Vlugtlaan",4c602376cd522d7f7e6fcd3f,0,"Bus Station",http://tour-pedia.org/api/getPlaceDetails?id=31644,http://tour-pedia.org/api/getReviewsByPlaceId?placeId=31644
"Moving target",poi,31645,52.381076487067,4.8387116872353,Amsterdam,"Trein Amsterdam CS - Den Haag CS",4ed8c94ff790c04543ad1635,0,Train,http://tour-pedia.org/api/getPlaceDetails?id=31645,http://tour-pedia.org/api/getReviewsByPlaceId?placeId=31645
,poi,31646,52.378917694092,4.8377199172974,Amsterdam,"bus 21 naar CENTRAAL STATION",50a33243e4b07d69fb9abe00,0,"Moving Target",http://tour-pedia.org/api/getPlaceDetails?id=31646,http://tour-pedia.org/api/getReviewsByPlaceId?placeId=31646
"Rijksweg A10",poi,31647,52.372206267066,4.8420739173889,Amsterdam,"A10 - Afslag S105 (Jan van Galenstraat)",4bebc019415e20a135aae6bb,0,Road,http://tour-pedia.org/api/getPlaceDetails?id=31647,http://tour-pedia.org/api/getReviewsByPlaceId?placeId=31647
"Jan Tooropstraat",poi,31649,52.371068,4.838094,Amsterdam,"Tram- en Bushalte Jan Tooropstraat",4e9d894ab6348df6f72a97f4,0,"Light Rail",http://tour-pedia.org/api/getPlaceDetails?id=31649,http://tour-pedia.org/api/getReviewsByPlaceId?placeId=31649
,poi,31650,52.369612283932,4.8367953300476,Amsterdam,"jan evertsenstraat",4df8e7ee091a16724ce28f97,0,Road,http://tour-pedia.org/api/getPlaceDetails?id=31650,http://tour-pedia.org/api/getReviewsByPlaceId?placeId=31650
"Jan Evertsenstraat",poi,31651,52.369303217271,4.8387429559999,Amsterdam,"Tram- en Bushalte Jan Voermanstraat",4bcecf07c564ef3bcac4eef0,0,"Bus Station",http://tour-pedia.org/api/getPlaceDetails?id=31651,http://tour-pedia.org/api/getReviewsByPlaceId?placeId=31651
,poi,31652,52.377724,4.837585,Amsterdam,"On The Dutch Muggle Wagon",521c4dc111d22a8b5d4148b0,0,"Moving Target",http://tour-pedia.org/api/getPlaceDetails?id=31652,http://tour-pedia.org/api/getReviewsByPlaceId?placeId=31652
,poi,31653,52.369798,4.837165,Amsterdam,Taxi,50c99a3ae4b017310fb6d0f0,0,Taxi,http://tour-pedia.org/api/getPlaceDetails?id=31653,http://tour-pedia.org/api/getReviewsByPlaceId?placeId=31653
Leeuwendalersweg,poi,31654,52.376957788688,4.837232318101,Amsterdam,Leeuwendalersweg,4f78388fe4b01af7139b6ebc,0,Road,http://tour-pedia.org/api/getPlaceDetails?id=31654,http://tour-pedia.org/api/getReviewsByPlaceId?placeId=31654
,poi,31655,52.378704,4.837197,Amsterdam,Imtercity,51ff6b49498e9a45ef35d3c2,0,Train,http://tour-pedia.org/api/getPlaceDetails?id=31655,http://tour-pedia.org/api/getReviewsByPlaceId?placeId=31655
,poi,31657,52.360459968347,4.8373585191203,Amsterdam,"Amsterdam Central",51ebb77c498e7d4528448daa,0,Platform,http://tour-pedia.org/api/getPlaceDetails?id=31657,http://tour-pedia.org/api/getReviewsByPlaceId?placeId=31657
"Schiphol airport",poi,31658,52.365159240016,4.8377960367686,Amsterdam,"Schiphol gate D05",4e8ecf9f8b814000384a5f6b,0,"Airport Gate",http://tour-pedia.org/api/getPlaceDetails?id=31658,http://tour-pedia.org/api/getReviewsByPlaceId?placeId=31658
,poi,31659,52.366058349609,4.8380470275879,Amsterdam,"Jan van galenstraat",51100978e4b0be8b49bea488,0,"Light Rail",http://tour-pedia.org/api/getPlaceDetails?id=31659,http://tour-pedia.org/api/getReviewsByPlaceId?placeId=31659
,poi,31661,52.365436,4.835032,Amsterdam,"В Волшебном Двухэтажном Поезде",51ea9ddd498e1af03b5b180c,0,Train,http://tour-pedia.org/api/getPlaceDetails?id=31661,http://tour-pedia.org/api/getReviewsByPlaceId?placeId=31661
"Jan Evertsenstraat",poi,31662,52.369926714243,4.835786819458,Amsterdam,"Bushalte Jan Evertsenstraat",4cb0b262c5e6a1cd0b84d7f6,0,"Bus Station",http://tour-pedia.org/api/getPlaceDetails?id=31662,http://tour-pedia.org/api/getReviewsByPlaceId?placeId=31662
,poi,31663,52.368416,4.840986,Amsterdam,"Tramstation Adm. Helfrichstraat",4d79020adb7c5481eddc39f2,0,"Light Rail",http://tour-pedia.org/api/getPlaceDetails?id=31663,http://tour-pedia.org/api/getReviewsByPlaceId?placeId=31663
